,Unnamed: 0,site_code,lon,lat,site_name,city,2015年,2016年,2017年,2018年,2019年,2020年,2021年,2022年
0,0,1001A,116.3621,39.8784,万寿西宫,北京,59.2,57.11,53.53,55.09,57.32,56.74,53.52,62.12
1,1,1002A,116.2202,40.2915,定陵(对照点),北京,71.23,66.78,69.7,68.13,68.0,66.89,61.71,72.55
2,2,1003A,116.4174,39.9289,东四,北京,55.93,56.27,54.91,61.25,62.8,63.76,57.77,67.71
3,3,1004A,116.4072,39.8863,天坛,北京,60.4,54.88,52.87,56.12,56.95,57.75,54.01,58.45
4,4,1005A,116.462,39.9365,农展馆,北京,61.46,59.05,58.87,59.92,60.09,60.32,54.41,62.37
5,5,1006A,116.3392,39.9295,官园,北京,56.86,53.99,57.06,60.42,61.28,62.73,53.81,63.07
6,6,1007A,116.2878,39.9611,海淀万柳,北京,51.92,52.76,50.84,58.53,55.81,56.06,49.34,57.73
7,7,1009A,116.6275,40.3275,怀柔镇,北京,60.52,52.41,69.38,65.67,65.04,65.81,60.06,68.23
8,8,1010A,116.2296,40.217,昌平镇,北京,58.06,53.04,54.3,63.44,62.08,60.86,58.27,64.75
9,9,1011A,116.3966,39.9821,奥体中心,北京,63.96,61.0,59.03,58.25,59.26,56.52,53.35,62.55
10,10,1012A,116.184,39.9136,古城,北京,60.78,58.92,56.82,61.36,58.06,56.92,52.9,64.21
11,11,1015A,117.1444,39.1661,勤俭道,天津,44.53,48.69,62.56,65.53,68.39,63.32,59.01,69.46
12,12,1017A,117.237,39.1082,大直沽八号路,天津,46.0,54.27,66.74,69.13,70.67,65.02,61.25,69.12
13,13,1018A,117.202,39.0927,前进道,天津,44.63,52.63,61.63,69.58,70.99,68.19,61.35,68.93
14,14,1021A,117.307,39.0877,跃进路,天津,43.77,46.47,57.83,63.44,66.52,62.58,57.45,65.11
15,15,1023A,117.707,39.0343,第四大街,天津,42.1,44.75,58.27,58.22,59.85,60.07,50.81,57.14
16,16,1024A,117.457,38.8394,永明路,天津,48.58,48.69,63.7,69.47,67.43,65.73,61.91,65.46
17,17,1026A,117.764,39.1587,汉北路,天津,50.27,51.01,64.49,63.93,60.42,59.71,57.32,62.4
18,18,1027A,117.157,38.9194,团泊洼(对照点),天津,55.48,61.44,57.68,61.3,64.47,60.29,60.51,69.02
19,19,1029A,114.4422,38.0444,职工医院,石家庄,37.37,45.51,54.82,66.28,59.78,57.05,61.84,64.12
20,20,1030A,114.6063,38.0266,高新区,石家庄,36.34,45.47,61.2,64.43,62.92,58.47,62.96,63.61
21,21,1031A,114.4898,38.1328,西北水源,石家庄,55.34,50.29,58.05,58.3,60.22,56.23,57.91,61.25
22,22,1032A,114.4586,38.0058,西南高教,石家庄,33.82,39.06,49.98,58.19,55.82,54.68,58.61,60.84
23,23,1033A,114.5331,38.0178,世纪公园,石家庄,44.04,48.56,54.71,62.15,59.34,61.99,62.64,63.77
24,24,1034A,114.509,38.0457,人民会堂,石家庄,50.97,46.28,52.23,64.05,67.18,63.34,69.48,71.31
25,25,1037A,118.131,39.6363,雷达站,唐山,54.3,55.85,56.71,61.79,58.54,58.02,58.36,65.9
26,26,1040A,118.1705,39.6506,十二中,唐山,54.74,54.95,58.77,56.08,58.3,56.34,57.89,62.78
27,27,1041A,118.1869,39.622,小山,唐山,56.42,55.4,58.73,61.76,56.68,59.46,53.89,63.91
28,28,1042A,119.5134,39.8207,北戴河环保局,秦皇岛,42.97,54.95,71.44,70.48,71.39,70.57,66.35,72.18
29,29,1043A,119.7493,40.0116,第一关,秦皇岛,45.88,54.8,53.9,51.69,52.56,57.93,56.37,58.82
30,30,1044A,119.5897,39.9499,监测站,秦皇岛,36.64,48.54,62.63,65.04,60.44,62.81,60.85,65.05
31,31,1046A,119.5251,39.9041,建设大厦,秦皇岛,41.76,49.94,58.87,59.72,58.66,61.56,61.6,67.59
32,32,1048A,114.5302,36.6116,东污水处理厂,邯郸,34.25,47.1,56.22,64.96,63.16,60.77,63.9,64.19
33,33,1049A,114.4918,36.5713,矿院,邯郸,57.49,50.95,57.15,70.12,67.64,64.47,63.8,65.27
34,34,1050A,114.484,36.6133,丛台公园,邯郸,41.08,49.15,56.82,70.47,66.54,64.49,65.06,68.83
35,35,1051A,115.493,38.8632,游泳馆,保定,64.36,57.26,69.11,72.6,66.21,61.55,62.36,66.57
36,36,1053A,115.4713,38.9108,接待中心,保定,55.94,53.48,67.67,71.07,66.57,60.19,62.36,66.61
37,37,1056A,115.5086,38.8639,监测站,保定,62.72,52.29,63.98,67.4,66.4,62.36,60.14,66.53
38,38,1057A,114.8883,40.8336,人民公园,张家口,76.61,78.57,78.81,80.9,75.06,70.63,70.11,78.08
39,39,1059A,114.8687,40.8042,五金库,张家口,70.65,74.59,81.04,81.07,73.9,73.58,70.78,78.3
40,40,1060A,114.8902,40.762,世纪豪园,张家口,67.99,75.02,82.65,79.14,73.42,74.1,73.85,78.87
41,41,1063A,117.9392,40.9763,中国银行,承德,57.1,57.93,51.7,53.24,51.63,52.39,47.51,50.73
42,42,1064A,117.9503,40.928,开发区,承德,63.48,62.07,56.92,60.52,55.58,58.1,51.42,56.79
43,43,1067A,116.6708,39.5111,药材公司,廊坊,51.11,53.28,62.11,59.22,61.65,62.19,59.16,66.19
44,44,1070A,116.7244,39.5269,北华航天学院,廊坊,55.73,56.36,63.34,63.2,64.33,62.21,59.22,66.04
45,45,1071A,116.8842,38.2991,沧县城建局,沧州,52.49,61.05,65.56,73.7,67.64,70.9,64.84,68.85
46,46,1072A,116.8584,38.3254,电视转播站,沧州,70.95,64.84,71.41,73.83,69.83,69.34,66.54,73.68
47,47,1073A,116.8709,38.3228,市环保局,沧州,56.66,64.33,71.61,73.01,66.24,67.97,63.73,74.43
48,48,1074A,115.6838,37.7541,电机北厂,衡水,63.2,69.09,62.64,71.53,70.93,72.83,68.84,75.26
49,49,1075A,115.6303,37.7316,市监测站,衡水,69.63,68.01,67.17,72.0,69.36,68.77,65.96,71.51
50,50,1077A,114.4704,37.0886,达活泉,邢台,51.06,51.89,60.71,65.32,64.12,63.37,65.4,68.03
51,51,1079A,114.5237,37.0851,路桥公司,邢台,41.73,43.64,59.2,61.69,60.62,61.1,63.85,65.93
52,52,1081A,112.5139,37.8873,尖草坪,太原,42.37,40.39,53.2,56.03,54.98,58.7,62.58,61.38
53,53,1084A,112.469,37.7124,晋源,太原,40.94,41.19,51.26,59.12,57.62,54.85,60.57,58.74
54,54,1085A,112.5583,37.7394,小店,太原,44.93,40.85,58.03,62.1,61.3,60.58,63.73,61.35
55,55,1086A,112.5369,37.8692,桃园,太原,30.29,41.18,53.03,57.43,56.27,58.95,64.83,61.31
56,56,1087A,112.57,37.8195,坞城,太原,36.36,40.8,50.65,62.42,59.37,59.81,65.07,64.59
57,57,1088A,112.549,37.9854,南寨,太原,55.96,48.61,48.71,52.42,48.16,51.1,51.97,49.59
58,58,1091A,111.6572,40.8033,小召,呼和浩特,47.36,58.32,61.17,56.93,56.23,57.03,57.65,62.32
59,59,1094A,111.7516,40.8369,如意水处理厂,呼和浩特,59.01,56.75,60.76,58.54,53.55,55.97,57.27,60.42
60,60,1095A,111.7276,40.8062,二十九中,呼和浩特,62.34,57.92,65.83,62.48,58.68,59.88,61.77,61.69
61,61,1097A,111.717,40.7612,化肥厂生活区,呼和浩特,50.26,56.31,57.01,54.87,54.92,58.72,59.29,61.04
62,62,1099A,123.505,41.7406,浑南东路,沈阳,59.77,55.01,59.12,53.06,52.43,54.11,49.45,53.95
63,63,1100A,123.4231,41.6989,新秀街,沈阳,60.65,54.49,58.14,54.0,57.55,53.94,49.57,53.31
64,64,1102A,123.5903,41.8411,东陵路,沈阳,61.81,65.44,63.03,58.0,54.6,52.68,46.17,49.43
65,65,1103A,123.4264,41.8467,陵东街,沈阳,31.84,43.73,65.31,59.7,56.42,57.43,52.55,54.55
66,66,1104A,123.4114,41.7653,文化路,沈阳,61.98,60.67,58.56,56.27,57.71,60.31,56.3,58.72
67,67,1105A,123.4678,41.7867,小河沿,沈阳,57.63,52.57,58.93,55.26,52.53,53.07,49.19,53.78
68,68,1106A,123.4017,41.7972,太原街,沈阳,39.92,52.63,57.16,55.36,54.29,54.95,49.47,57.13
69,69,1108A,123.3783,41.9228,京沈街,沈阳,64.26,71.82,68.63,65.66,60.11,60.06,55.52,61.43
70,70,1109A,121.612,38.9741,甘井子,大连,72.65,76.56,77.15,74.58,67.29,71.87,70.04,71.25
71,71,1110A,121.565,38.9511,周水子,大连,72.91,69.72,73.76,71.24,65.48,60.8,66.59,67.82
72,72,1111A,121.5637,38.8845,星海三站,大连,62.44,78.04,87.03,76.6,73.6,74.12,74.63,76.96
73,73,1112A,121.6302,38.9117,青泥洼桥,大连,67.81,65.05,75.28,72.54,69.98,69.35,70.18,74.33
74,74,1113A,121.6251,38.8638,傅家庄,大连,86.33,82.62,82.55,75.47,76.75,78.75,79.61,77.27
75,75,1115A,121.2529,38.8061,旅顺,大连,76.17,88.56,89.47,80.64,84.91,79.85,77.53,81.62
76,76,1116A,121.7485,39.1311,金州,大连,71.59,79.23,85.17,77.58,73.84,76.29,72.22,73.14
77,77,1117A,121.7811,39.0496,开发区,大连,74.13,74.08,76.28,76.34,73.2,70.57,71.32,70.84
78,78,1119A,125.3325,43.9166,食品厂,长春,55.47,54.57,53.17,54.13,50.79,49.13,46.23,52.72
79,79,1120A,125.2863,43.9027,客车厂,长春,60.11,55.67,55.34,54.55,52.32,52.71,49.46,55.23
80,80,1123A,125.3297,43.8805,园林处,长春,55.66,55.04,56.36,50.91,52.74,50.95,49.33,57.86
81,81,1126A,125.3863,43.8447,经开区环卫处,长春,58.56,55.09,57.91,52.96,54.66,52.08,48.91,53.11
82,82,1127A,125.245,43.7783,高新区管委会,长春,67.79,63.1,62.85,57.68,55.14,53.11,50.31,55.27
83,83,1128A,125.1761,43.8325,岱山公园,长春,67.34,65.61,62.34,57.92,54.96,52.83,48.76,54.67
84,84,1129A,126.5422,45.755,岭北(对照点),哈尔滨,48.78,37.39,66.03,67.74,58.67,65.81,65.1,61.6
85,85,1130A,126.561,45.8167,松北商大,哈尔滨,45.04,46.95,64.35,52.57,46.33,49.85,56.98,55.28
86,86,1131A,126.979,45.5419,阿城会宁,哈尔滨,41.49,57.37,69.36,58.29,50.16,56.44,56.67,52.43
87,87,1133A,126.689,45.7733,太平宏伟公园,哈尔滨,38.4,38.12,68.69,64.09,51.53,59.67,59.32,55.86
88,88,1134A,126.635,45.7667,道外承德广场,哈尔滨,33.07,30.73,47.97,49.94,48.94,52.94,57.27,55.64
89,89,1137A,126.593,45.7478,道里建国路,哈尔滨,48.41,46.19,51.38,48.19,46.34,53.17,54.06,54.29
90,90,1138A,126.615,45.61,平房东轻厂,哈尔滨,45.37,51.03,65.59,64.0,57.2,60.98,56.49,50.43
91,91,1142A,121.478,31.2036,十五厂,上海,76.87,65.35,70.8,69.91,68.83,69.08,64.08,73.52
92,92,1144A,121.412,31.1654,徐汇上师大,上海,69.48,70.38,75.56,68.31,67.95,65.37,60.9,74.42
93,93,1145A,121.536,31.2659,杨浦四漂,上海,79.14,84.17,77.51,74.7,69.17,67.55,62.8,76.14
94,94,1147A,121.425,31.2261,静安监测站,上海,73.65,71.49,80.26,73.51,73.37,72.14,66.13,73.49
95,95,1148A,121.703,31.1907,浦东川沙,上海,71.67,71.37,78.7,72.93,73.77,71.96,62.93,73.14
96,96,1149A,121.533,31.2284,浦东新区监测站,上海,79.06,79.52,81.97,74.7,67.47,64.57,64.65,76.89
97,97,1150A,121.577,31.2071,浦东张江,上海,71.12,68.96,76.88,68.29,66.92,66.01,58.92,69.19
98,98,1151A,118.8086,32.1065,迈皋桥,南京,49.76,54.12,59.12,61.27,61.3,58.56,59.07,65.59
99,99,1152A,118.7538,32.0551,草场门,南京,64.09,60.79,75.3,61.35,63.4,66.11,62.1,70.12
100,100,1153A,118.7794,32.0745,山西路,南京,71.84,76.69,71.65,70.29,65.41,63.85,66.21,75.54
101,101,1154A,118.7752,32.0023,中华门,南京,57.55,69.26,66.38,61.95,62.41,62.7,61.29,71.31
102,102,1155A,118.8109,32.0309,瑞金路,南京,51.13,65.87,60.36,62.44,65.37,66.08,63.53,70.91
103,103,1156A,118.7997,32.0754,玄武湖,南京,57.42,73.39,65.46,63.5,64.36,63.66,60.79,72.37
104,104,1158A,118.7356,31.9996,奥体中心,南京,54.74,68.71,58.57,71.22,66.56,68.99,63.58,73.09
105,105,1159A,118.9125,32.1028,仙林大学城,南京,68.44,68.36,63.83,65.22,64.3,65.64,65.94,74.66
106,106,1160A,120.561,31.2472,上方山(对照点),苏州,58.57,60.06,70.55,60.56,61.41,65.97,64.66,67.65
107,107,1163A,120.596,31.3264,轧钢厂,苏州,49.61,53.98,62.73,54.95,56.7,61.28,58.75,69.69
108,108,1164A,120.613,31.2703,吴中区,苏州,61.84,61.56,70.27,61.97,64.66,66.29,60.31,72.3
109,109,1166A,120.669,31.3097,苏州工业园区,苏州,64.65,66.86,69.71,62.19,59.11,64.26,62.84,70.36
110,110,1168A,120.9098,31.9663,狼山街道,南通,71.79,68.65,73.45,63.33,67.54,66.63,64.14,78.67
111,111,1169A,120.86,32.0005,虹桥,南通,79.5,72.94,78.49,66.92,67.96,68.06,62.13,76.32
112,112,1170A,120.87,32.02,城中,南通,73.99,72.68,72.73,70.53,66.33,66.69,67.57,76.83
113,113,1171A,120.94,31.93,星湖花园,南通,66.79,68.47,70.79,61.46,62.61,63.32,60.42,76.53
114,114,1172A,120.81,32.0417,紫琅学院,南通,72.43,72.88,81.94,74.84,67.59,63.35,60.05,75.39
115,115,1173A,119.176,34.5885,市环境监测站,连云港,69.11,73.04,68.42,72.69,73.68,70.69,69.04,77.5
116,116,1177A,117.179,34.2761,黄河新村,徐州,63.02,62.96,70.32,65.17,66.7,63.05,62.18,76.24
117,117,1178A,117.1918,34.2384,淮塔,徐州,64.86,63.12,66.86,68.56,67.44,63.95,61.2,75.16
118,118,1180A,117.256,34.2153,新城区,徐州,55.13,49.61,74.1,68.15,65.17,59.59,60.3,71.71
119,119,1181A,117.244,34.2911,桃园路,徐州,62.93,54.42,65.74,71.05,63.67,68.8,62.13,72.96
120,120,1182A,117.2933,34.2778,农科院,徐州,53.85,55.75,63.96,64.72,58.58,61.07,56.41,66.3
121,121,1188A,120.269,31.4867,雪浪,无锡,64.37,67.38,66.8,60.24,67.02,69.72,65.77,73.72
122,122,1191A,120.242,31.5031,漆塘,无锡,71.37,72.55,75.89,64.07,67.51,68.66,65.78,76.03
123,123,1195A,120.299,31.6817,堰桥,无锡,50.35,53.91,56.9,62.47,62.83,63.33,59.83,72.4
124,124,1196A,119.9633,31.762,市监测站,常州,51.78,58.2,65.61,67.88,61.05,64.33,63.01,70.98
125,125,1200A,119.9468,31.7069,武进监测站,常州,60.27,65.3,64.49,70.22,69.77,68.72,67.16,78.07
126,126,1201A,119.9255,31.9087,安家,常州,58.32,55.37,62.39,65.86,66.65,65.49,64.16,73.75
127,127,1203A,119.6707,32.1875,新区办事处,镇江,68.49,55.17,61.32,60.46,61.44,58.2,60.06,73.19
128,128,1204A,119.4974,32.1968,职教中心,镇江,68.61,66.27,76.38,71.32,65.05,64.81,61.95,75.95
129,129,1205A,119.4303,32.1328,丹徒区监测站,镇江,62.48,61.1,59.7,59.2,70.5,65.5,65.07,78.45
130,130,1206A,119.905,32.4878,公园路,泰州,77.9,67.5,68.3,70.37,70.43,66.47,63.94,71.34
131,131,1207A,119.9189,32.4625,莲花,泰州,68.27,68.52,74.47,72.28,69.77,67.54,64.9,75.93
132,132,1210A,119.036,33.5981,钵池山,淮安,85.85,81.4,77.5,72.01,64.77,66.64,69.01,76.29
133,133,1211A,119.007,33.575,北京南路,淮安,64.17,65.88,73.67,70.99,69.41,68.28,68.49,74.34
134,134,1212A,118.989,33.6067,市监测站,淮安,76.4,63.46,67.17,73.19,66.84,66.58,70.19,77.82
135,135,1213A,119.135,33.5039,楚州区监测站,淮安,69.35,68.96,67.62,68.15,67.15,65.85,65.62,70.74
136,136,1214A,119.0186,33.6297,淮阴区监测站,淮安,59.19,62.44,68.63,69.68,74.72,69.77,67.4,73.81
137,137,1215A,120.118,33.4022,盐城电厂,盐城,79.82,71.23,81.08,83.67,75.93,73.55,73.99,84.64
138,138,1216A,120.156,33.3942,市监测站,盐城,76.81,68.85,78.5,70.72,69.72,74.41,76.33,82.77
139,139,1218A,120.2144,33.38,开发区管委会,盐城,86.01,77.87,68.62,73.42,74.12,73.38,73.55,79.9
140,140,1220A,118.293,33.9528,宿迁学院,宿迁,68.08,67.84,77.02,72.16,72.12,70.93,66.88,75.9
141,141,1223A,120.2072,30.2111,滨江,杭州,58.58,57.67,59.04,55.27,56.03,52.66,54.19,64.49
142,142,1224A,120.0633,30.2747,西溪,杭州,53.4,55.48,52.51,55.91,58.96,51.19,50.43,54.19
143,143,1226A,120.3461,30.3153,下沙,杭州,57.82,60.81,61.63,57.65,56.41,51.77,56.66,65.17
144,144,1227A,120.1269,30.2456,卧龙桥,杭州,51.94,49.09,52.25,49.58,46.63,46.88,48.11,54.58
145,145,1228A,120.1903,30.2692,浙江农大,杭州,49.65,53.8,58.34,57.2,56.88,54.12,54.12,64.6
146,146,1232A,120.2697,30.1819,城厢镇,杭州,49.22,57.18,53.98,58.6,55.4,52.54,54.67,63.29
147,147,1233A,120.0883,30.1808,云栖,杭州,48.71,45.84,51.84,50.63,52.86,48.17,47.65,55.46
148,148,1234A,121.8358,29.911,区环保大楼,宁波,63.96,62.46,59.83,59.58,60.85,61.06,53.39,61.64
149,149,1235A,121.56,29.82,万里学院,宁波,68.11,61.56,67.02,56.32,62.62,66.63,60.53,71.7
150,150,1236A,121.713,29.9572,龙赛医院,宁波,69.03,67.82,67.73,59.65,62.61,62.59,57.27,70.46
151,151,1239A,121.633,29.7733,钱湖水厂,宁波,78.71,75.04,75.63,68.85,68.39,66.65,62.57,70.35
152,152,1240A,121.5856,29.8635,太古小学,宁波,62.36,64.94,66.13,62.05,62.38,63.22,56.57,65.99
153,153,1241A,121.524,29.8674,市环境监测中心,宁波,48.6,53.39,55.05,53.63,59.87,62.29,57.9,65.52
154,154,1242A,120.634,28.0089,瓯海,温州,49.58,46.42,54.19,48.97,46.57,52.6,46.93,56.02
155,155,1243A,120.6748,27.9939,南浦,温州,50.17,53.16,57.63,55.66,52.83,59.58,51.62,60.25
156,156,1244A,120.76,27.9747,龙湾,温州,48.82,49.28,49.35,46.96,45.38,51.85,44.53,53.6
157,157,1245A,120.6709,28.0167,市站,温州,52.57,54.04,61.34,54.45,52.12,58.14,49.19,60.25
158,158,1247A,120.6053,29.9928,城东开发委,绍兴,46.05,55.24,63.41,59.72,59.52,58.77,55.64,62.78
159,159,1250A,120.0751,30.8669,城西水厂,湖州,58.36,62.97,60.19,55.16,57.68,56.11,54.13,64.61
160,160,1252A,120.7436,30.778,清河小学,嘉兴,64.99,64.57,71.92,69.41,65.64,64.44,61.71,69.74
161,161,1253A,120.726,30.7478,嘉兴学院,嘉兴,69.31,67.07,70.45,62.03,58.82,63.32,63.13,71.6
162,162,1255A,121.273,28.6459,黄岩环保大楼,台州,63.63,66.83,65.72,61.18,67.03,67.35,58.85,64.68
163,163,1256A,121.419,28.6542,台州环保大楼,台州,63.9,62.99,66.84,62.03,64.78,69.15,61.6,68.29
164,164,1257A,121.377,28.5773,路桥田洋王,台州,64.61,64.0,62.31,64.01,63.89,67.31,57.8,66.33
165,165,1258A,122.122,30.0203,定海檀枫,舟山,77.02,69.18,77.67,64.09,61.94,71.56,65.05,71.19
166,166,1259A,122.3094,29.9558,普陀东港,舟山,84.11,80.66,85.49,74.31,76.38,74.39,72.84,77.21
167,167,1260A,122.19,29.9944,临城新区,舟山,71.42,72.24,76.13,64.08,72.81,75.69,67.41,71.97
168,168,1262A,119.647,29.077,十五中,金华,58.12,52.85,60.48,58.68,59.11,56.45,52.31,60.33
169,169,1263A,119.686,29.1029,监测站,金华,54.02,53.52,59.82,59.36,55.07,54.7,47.71,59.05
170,170,1264A,118.8692,28.9398,环保大楼,衢州,54.21,52.24,55.92,52.18,53.46,51.35,51.24,56.63
171,171,1265A,118.8709,28.9666,实验学校,衢州,79.42,62.77,56.18,58.61,59.79,63.94,54.42,59.05
172,172,1266A,118.8621,28.9808,衢州学院,衢州,55.87,57.53,56.18,59.01,54.79,50.74,50.28,57.73
173,173,1267A,119.914,28.4514,监测站大楼,丽水,47.87,51.73,59.15,55.25,52.19,51.25,47.98,53.91
174,174,1269A,119.879,28.4231,余庄前,丽水,57.62,45.3,52.28,51.05,46.78,52.14,42.33,47.49
175,175,1270A,117.1959,31.7848,明珠广场,合肥,59.8,54.4,57.64,62.64,56.46,55.79,56.85,66.09
176,176,1271A,117.3072,31.8764,三里街,合肥,55.08,50.27,52.05,52.71,57.22,48.62,49.39,62.91
177,177,1272A,117.2588,31.8707,琥珀山庄,合肥,47.52,54.29,59.8,64.14,65.31,60.28,57.34,67.2
178,178,1273A,117.1604,31.9052,董铺水库(对照点),合肥,55.96,66.88,77.73,73.74,71.59,63.77,61.58,63.98
179,179,1274A,117.25,31.8571,长江中路,合肥,45.27,59.34,62.07,67.1,67.04,62.19,60.43,72.79
180,180,1275A,117.266,31.9436,庐阳区,合肥,32.66,58.77,70.0,63.15,60.51,50.93,55.93,66.93
181,181,1276A,117.336,31.8586,瑶海区,合肥,53.85,64.86,62.97,61.76,60.41,57.29,53.48,65.65
182,182,1277A,117.3027,31.7964,包河区,合肥,36.8,51.9,60.33,61.16,53.37,47.59,48.03,61.53
183,183,1279A,117.1318,31.8403,高新区,合肥,26.63,63.07,77.02,73.97,73.84,63.97,61.57,72.17
184,184,1282A,119.2681,26.0504,师大,福州,52.56,57.32,69.39,64.45,64.93,63.37,53.3,67.58
185,185,1284A,119.2648,26.0768,杨桥西路,福州,51.55,51.5,69.94,66.35,53.78,54.74,57.24,64.29
186,186,1285A,119.317,26.0746,紫阳,福州,49.86,47.0,55.69,60.43,55.93,58.66,50.91,66.94
187,187,1287A,118.1514,24.4767,洪文,厦门,47.5,43.97,58.96,60.87,67.31,67.41,65.67,63.71
188,188,1290A,115.8931,28.6843,省外办,南昌,51.22,45.13,49.59,53.71,56.51,56.44,51.85,63.82
189,189,1291A,115.8886,28.7003,省林业公司,南昌,56.49,56.45,54.22,53.43,56.12,60.23,52.63,62.27
190,190,1292A,115.8126,28.7442,林科所,南昌,57.77,70.4,63.18,60.93,68.93,67.09,59.09,69.4
191,191,1294A,115.8518,28.687,建工学校,南昌,45.38,56.11,58.27,58.52,63.1,60.23,54.47,64.65
192,192,1295A,115.8921,28.6424,象湖,南昌,45.01,50.53,57.66,60.44,58.84,57.6,51.29,61.76
193,193,1296A,115.7423,28.7996,武术学校(对照点),南昌,35.13,60.01,61.31,58.87,55.54,52.31,46.49,53.34
194,194,1298A,115.9314,28.6842,省站,南昌,58.46,61.9,60.05,56.86,58.15,58.59,55.89,63.48
195,195,1300A,116.9376,36.665,农科所,济南,66.27,61.3,64.46,71.35,64.34,65.29,64.7,68.72
196,196,1303A,117.0624,36.6868,省种子仓库,济南,55.39,68.67,68.81,74.88,71.14,71.24,67.88,73.39
197,197,1310A,120.4134,36.0658,市南区东部子站,青岛,75.65,55.96,73.83,71.81,73.37,72.93,71.34,75.32
198,198,1311A,120.3664,36.1032,四方区子站,青岛,73.82,70.35,78.5,73.81,69.53,68.24,67.99,69.14
199,199,1312A,120.2994,36.054,市南区西部子站,青岛,75.27,86.71,83.0,75.59,74.52,79.4,78.41,79.21
200,200,1313A,120.4581,36.0858,崂山区子站,青岛,82.11,67.13,75.02,79.49,77.68,74.16,74.58,80.87
201,201,1314A,120.1983,35.9608,黄岛区子站,青岛,57.38,64.93,76.49,70.96,75.58,73.8,69.3,78.42
202,202,1315A,120.3999,36.3083,城阳区子站,青岛,64.23,74.61,81.72,69.91,65.3,62.12,62.49,69.49
203,203,1316A,113.69031,34.76122,烟厂,郑州,59.14,69.66,66.39,69.6,69.65,70.0,69.39,75.37
204,204,1317A,113.65724,34.77134,郑纺机,郑州,48.32,55.92,68.16,71.25,68.44,69.99,70.81,74.79
205,205,1318A,113.67526,34.80246,银行学校,郑州,54.28,68.12,62.91,67.57,71.16,68.32,71.05,76.53
206,206,1321A,113.73961,34.77172,四十七中,郑州,56.92,63.73,65.46,66.6,63.5,67.34,68.59,75.11
207,207,1325A,114.3677,30.5584,东湖梨园,武汉,57.81,60.18,52.9,59.97,64.67,59.25,61.14,68.56
208,208,1326A,114.2529,30.558,汉阳月湖,武汉,52.42,48.61,47.29,54.97,55.56,56.1,58.43,65.26
209,209,1327A,114.282,30.6189,汉口花桥,武汉,53.65,47.69,47.26,58.97,60.25,61.44,57.83,67.06
210,210,1328A,114.3025,30.5332,武昌紫阳,武汉,53.1,49.02,46.95,53.63,56.98,58.51,57.36,63.39
211,211,1329A,114.3646,30.6217,青山钢花,武汉,55.17,53.58,46.34,54.71,58.1,55.05,54.04,64.63
212,212,1335A,113.0833,28.2325,经开区环保局,长沙,49.68,49.86,54.12,58.63,58.0,55.13,54.95,60.63
213,213,1336A,112.8872,28.2189,高开区环保局,长沙,58.66,53.69,58.5,65.17,59.31,59.13,54.64,63.66
214,214,1337A,113.0792,28.2053,马坡岭,长沙,35.96,52.47,47.49,55.33,58.73,54.59,53.81,59.26
215,215,1338A,112.9394,28.19,湖南师范大学,长沙,48.1,52.98,57.58,62.96,62.05,57.42,57.13,62.14
216,216,1339A,113.0178,28.1322,雨花区环保局,长沙,52.48,50.8,55.66,63.21,60.2,56.59,53.61,61.45
217,217,1340A,112.9792,28.2597,伍家岭,长沙,44.53,45.46,46.21,55.45,55.24,51.05,52.21,57.52
218,218,1341A,113.0014,28.1944,火车新站,长沙,41.37,50.31,48.61,58.83,55.63,55.03,51.05,58.63
219,219,1342A,112.9844,28.1178,天心区环保局,长沙,50.12,53.67,60.75,65.9,59.65,57.33,54.93,59.27
220,220,1343A,112.8908,28.1308,湖南中医药大学,长沙,53.91,51.5,50.94,59.01,54.33,50.53,47.44,55.44
221,221,1344A,112.9581,28.3611,沙坪(对照点),长沙,58.41,58.52,59.33,67.06,69.48,60.15,59.61,61.48
222,222,1345A,113.2347,23.1423,广雅中学,广州,35.18,34.94,39.88,44.31,47.1,48.07,55.56,53.79
223,223,1346A,113.2612,23.105,市五中,广州,38.84,39.28,46.14,49.03,55.08,53.42,57.8,61.64
224,224,1348A,113.3478,23.0916,广东商学院,广州,39.25,42.84,47.14,49.1,51.2,53.54,52.76,55.09
225,225,1349A,113.4332,23.1047,市八十六中,广州,40.38,41.06,44.6,46.97,47.9,48.92,49.24,50.7
226,226,1350A,113.3505,22.9483,番禺中学,广州,52.7,53.02,51.12,57.49,56.7,54.86,62.29,59.9
227,227,1351A,113.2146,23.3916,花都师范,广州,54.05,48.86,56.17,57.67,55.54,59.35,59.9,60.63
228,228,1352A,113.2597,23.1331,市监测站,广州,35.69,34.48,42.12,44.47,55.3,55.16,58.96,59.69
229,229,1353A,113.5618,23.312,九龙镇镇龙,广州,43.13,48.46,49.28,48.5,49.39,47.82,47.57,48.51
230,230,1354A,113.2765,23.1544,麓湖,广州,38.14,39.58,43.65,45.05,46.06,47.82,50.53,54.16
231,231,1356A,114.1063,22.5545,通心岭子站,深圳,51.55,54.84,61.15,62.21,66.54,58.78,56.01,60.3
232,232,1357A,114.117,22.5625,洪湖,深圳,50.98,56.67,57.84,57.61,67.45,51.68,54.31,61.32
233,233,1358A,113.987,22.5417,华侨城,深圳,36.17,49.83,69.79,59.88,61.2,52.24,50.49,58.59
234,234,1359A,113.9181,22.5171,南海子站,深圳,52.95,53.01,52.93,55.88,61.81,50.24,53.58,61.21
235,235,1360A,114.2458,22.5689,盐田,深圳,56.1,60.33,57.14,58.14,70.37,52.04,56.79,58.81
236,236,1361A,114.2283,22.7244,龙岗,深圳,48.16,57.32,66.25,62.65,56.1,51.98,59.13,62.9
237,237,1363A,114.494,22.5422,南澳,深圳,58.04,63.46,65.54,55.37,58.63,62.27,60.65,68.08
238,238,1364A,114.41,22.6342,葵涌,深圳,66.61,75.01,70.78,75.44,68.7,58.7,59.12,61.65
239,239,1365A,114.297,22.5978,梅沙,深圳,64.21,65.62,65.16,62.34,71.76,63.05,64.99,69.78
240,240,1366A,114.0678,22.738,观澜,深圳,57.84,56.51,58.54,58.05,57.32,47.99,56.01,52.72
241,241,1367A,113.5814,22.2618,吉大,珠海,55.02,73.6,67.37,69.9,72.23,61.51,59.76,64.66
242,242,1368A,113.4881,22.2335,前山,珠海,71.94,56.41,55.82,63.04,58.51,55.73,61.08,61.0
243,243,1369A,113.628,22.4251,唐家,珠海,43.44,51.7,62.05,64.78,68.46,60.18,61.05,65.82
244,244,1370A,113.299,22.2281,斗门,珠海,59.23,63.68,50.2,60.44,56.42,55.09,58.7,61.22
245,245,1371A,113.1294,23.0067,湾梁,佛山,37.55,45.59,48.3,51.71,52.12,49.82,56.17,60.44
246,246,1372A,113.1083,23.0478,华材职中,佛山,43.52,46.14,48.44,50.46,52.48,49.84,56.47,57.65
247,247,1373A,113.144,23.0453,南海气象局,佛山,44.49,45.18,51.37,51.82,52.1,51.89,55.77,55.98
248,248,1374A,113.2881,22.8094,顺德苏岗,佛山,48.51,47.42,53.26,52.37,53.92,48.79,52.54,55.86
249,249,1376A,112.8383,22.8678,高明孔堂,佛山,49.32,52.67,54.03,56.43,63.66,58.81,60.41,60.59
250,250,1377A,112.8836,23.1588,三水监测站,佛山,40.84,42.74,49.72,47.85,45.61,46.84,49.58,48.99
251,251,1378A,112.867,23.185,三水云东海,佛山,41.63,48.69,50.23,46.69,48.64,46.83,51.96,51.59
252,252,1379A,113.3769,22.5211,华柏园,中山,40.03,45.79,48.53,47.66,56.07,52.48,56.32,59.03
253,253,1380A,113.3881,22.5497,张溪,中山,44.78,46.99,56.75,55.77,57.04,52.73,56.1,61.09
254,254,1381A,113.4075,22.5111,紫马岭,中山,46.8,50.36,59.39,57.98,61.44,54.26,56.76,58.78
255,255,1383A,113.1064,22.6058,北街,江门,35.93,46.49,53.35,53.74,58.19,55.19,59.0,61.73
256,256,1384A,113.0731,22.5835,西区,江门,47.59,47.83,52.89,56.17,58.44,56.57,59.18,59.89
257,257,1385A,113.0219,22.5311,圭峰西,江门,41.55,47.97,56.56,55.41,63.33,56.95,63.85,63.08
258,258,1386A,113.0828,22.5947,东湖,江门,38.68,42.26,52.43,58.1,58.71,54.63,59.2,62.09
259,259,1390A,113.7944,23.0128,东城石井,东莞,57.42,53.99,55.78,58.87,61.15,56.15,60.66,63.74
260,260,1391A,113.7383,22.9658,南城西平,东莞,57.15,51.19,53.41,53.79,57.7,55.89,57.64,60.8
261,261,1393A,114.4053,23.0822,下埔横江三路子站,惠州,57.2,54.09,60.25,62.8,61.08,59.36,61.27,64.46
262,262,1396A,114.5317,22.7422,大亚湾管委会子站,惠州,59.43,55.04,57.88,63.21,65.77,60.8,66.22,63.19
263,263,1397A,112.4267,23.0706,睦岗子站,肇庆,46.59,48.25,51.11,49.48,49.09,46.21,49.19,56.77
264,264,1398A,112.4645,23.0475,城中子站,肇庆,55.52,50.39,48.2,53.04,53.87,48.72,53.78,58.04
265,265,1399A,112.5544,23.1522,坑口子站,肇庆,54.51,48.1,50.92,52.1,56.05,48.8,57.46,63.8
266,266,1401A,108.3103,22.7881,二十一中,南宁,46.59,48.0,43.95,43.09,43.07,52.09,55.73,54.09
267,267,1403A,108.3206,22.8225,市监测站,南宁,40.43,30.19,41.54,49.58,45.72,49.0,53.98,52.53
268,268,1404A,108.3829,22.8037,大自然花园,南宁,52.5,47.54,51.69,50.44,53.84,56.5,56.36,56.04
269,269,1405A,108.4394,22.7904,仙葫(对照点),南宁,53.08,52.77,46.64,48.99,45.84,48.84,51.88,52.06
270,270,1406A,108.2397,22.8467,区农职院,南宁,51.03,49.86,48.91,47.85,45.3,49.8,50.33,51.78
271,271,1407A,108.3275,22.735,英华嘉园,南宁,50.93,43.53,37.52,43.36,39.23,43.76,47.47,46.0
272,272,1408A,108.2257,22.7757,沙井镇街道办,南宁,43.22,43.25,38.87,40.68,36.73,40.29,41.81,42.32
273,273,1412A,110.338,19.9969,海南师范大学,海口,53.07,55.24,58.53,50.74,64.59,60.79,61.18,58.92
274,274,1413A,110.33,20.0356,龙华路环保局宿舍,海口,41.8,50.62,55.13,54.75,65.1,61.83,63.08,64.98
275,275,1414A,106.3787,29.8279,缙云山(对照点),重庆,75.37,86.24,77.08,73.89,74.67,71.88,73.24,78.91
276,276,1417A,106.6263,29.7228,两路,重庆,31.32,35.48,39.34,44.22,40.65,36.64,36.05,49.99
277,277,1419A,106.5777,29.5102,南坪,重庆,39.13,33.76,39.55,51.23,43.74,41.73,41.38,58.05
278,278,1420A,106.6556,29.6277,唐家沱,重庆,43.09,41.71,42.64,41.05,39.42,38.54,37.36,46.85
279,279,1421A,106.6349,29.4906,茶园,重庆,33.56,35.8,32.9,37.21,37.22,34.4,33.28,49.82
280,280,1422A,106.3754,29.4572,白市驿,重庆,39.76,39.76,43.39,45.98,44.04,45.12,43.11,58.06
281,281,1425A,106.6205,29.7166,空港,重庆,39.27,43.2,47.64,48.72,49.97,44.94,44.66,54.37
282,282,1426A,106.4782,29.4875,新山村,重庆,27.13,33.16,33.71,35.62,35.15,37.26,33.03,44.52
283,283,1427A,106.5616,29.6453,礼嘉,重庆,30.39,49.23,42.73,40.52,37.04,34.64,34.81,46.93
284,284,1431A,103.9728,30.7236,金泉两河,成都,51.64,48.48,48.22,49.56,45.3,49.28,46.29,56.34
285,285,1432A,104.1419,30.6764,十里店,成都,48.44,50.04,49.81,56.26,48.68,49.68,45.59,54.45
286,286,1433A,104.0594,30.5767,三瓦窑,成都,52.71,53.86,50.24,50.93,38.76,46.64,44.71,52.9
287,287,1434A,104.1122,30.6306,沙河铺,成都,43.02,43.15,42.18,44.62,38.12,44.6,40.61,52.83
288,288,1437A,104.0431,30.6556,君平街,成都,50.49,51.07,48.23,51.02,42.75,51.64,52.09,60.38
289,289,1439A,106.6899,26.5998,马鞍山,贵阳,43.3,49.23,48.86,51.41,48.31,49.47,46.93,48.72
290,290,1441A,106.6243,26.6266,鉴湖路,贵阳,56.57,59.6,57.69,60.67,53.07,57.35,57.1,57.71
291,291,1442A,106.7487,26.6343,燕子冲,贵阳,51.69,58.04,55.01,54.56,53.48,51.07,52.78,51.16
292,292,1443A,106.6555,26.4365,碧云窝,贵阳,56.1,57.74,54.17,52.94,48.0,50.62,51.06,56.08
293,293,1444A,106.694,26.5161,中院村,贵阳,46.91,53.31,47.2,50.42,49.92,49.09,46.58,51.56
294,294,1446A,106.7164,26.5699,新华路,贵阳,53.06,56.49,53.39,52.17,56.97,54.09,53.28,53.82
295,295,1450A,102.8204,24.8886,呈贡新区,昆明,60.03,58.57,55.01,55.95,66.5,57.36,64.06,64.75
296,296,1452A,102.7252,25.0902,龙泉镇,昆明,48.34,59.99,48.14,52.49,51.79,47.72,51.6,50.9
297,297,1453A,102.7266,25.0375,东风东路,昆明,45.05,55.77,51.84,51.67,54.93,50.35,58.93,58.14
298,298,1454A,102.6742,25.0669,金鼎山,昆明,49.74,54.13,48.72,51.73,56.42,51.27,56.09,56.95
299,299,1457A,91.1221,29.6747,市环保局,拉萨,71.8,72.53,62.72,77.04,74.14,67.15,71.31,78.21
300,300,1458A,91.0874,29.6475,区监测站,拉萨,87.51,76.78,78.09,82.23,74.96,74.89,72.05,83.35
301,301,1459A,91.1774,29.6541,西藏大学,拉萨,79.35,79.92,72.3,84.56,80.25,74.14,77.61,84.47
302,302,1461A,91.0834,29.6292,拉萨火车站,拉萨,84.75,79.45,79.47,81.14,80.46,73.55,74.45,82.49
303,303,1462A,108.882,34.2749,高压开关厂,西安,38.93,47.63,50.7,59.26,52.51,50.2,49.78,57.04
304,304,1463A,108.993,34.2629,兴庆小区,西安,39.66,45.62,52.79,54.87,49.35,49.75,45.64,56.12
305,305,1464A,109.06,34.2572,纺织城,西安,43.58,44.97,38.85,46.57,41.82,39.5,39.97,46.6
306,306,1465A,108.9356,34.2173,小寨,西安,38.59,52.1,50.16,51.76,45.69,47.89,45.45,54.7
307,307,1466A,108.954,34.2713,市人民体育场,西安,40.94,47.38,43.19,49.98,45.05,45.59,44.83,55.47
308,308,1467A,108.8922,34.2322,高新西区,西安,45.08,48.68,49.06,50.26,47.34,49.9,47.36,56.92
309,309,1468A,108.935,34.3474,经开区,西安,42.64,52.8,51.65,56.61,50.34,49.61,49.03,55.42
310,310,1469A,108.906,34.1546,长安区,西安,42.78,44.5,49.3,50.21,46.66,48.47,46.69,54.75
311,311,1473A,108.985,34.1978,曲江文化产业集团,西安,41.45,42.04,42.8,43.93,37.13,38.49,37.34,52.56
312,312,1474A,109.051,34.3213,广运潭,西安,45.52,52.09,48.22,53.19,48.21,45.98,43.16,51.99
313,313,1476A,103.631,36.1031,兰炼宾馆,兰州,50.72,56.71,65.53,66.78,60.41,60.27,59.25,65.71
314,314,1478A,103.8412,36.0726,生物制品所,兰州,55.78,52.98,48.76,46.66,51.8,52.77,45.64,58.85
315,315,1479A,103.831,36.0464,铁路设计院,兰州,41.9,51.2,49.48,46.62,45.44,53.19,47.96,57.55
316,316,1484A,105.9512,38.6016,贺兰山马莲口(对照点),银川,62.31,90.59,98.53,89.44,94.24,88.94,85.19,90.56
317,317,1488A,106.2328,38.4975,贺兰山东路,银川,48.97,59.66,68.4,70.28,65.22,62.93,61.55,65.35
318,318,1491A,87.6046,43.768,收费所,乌鲁木齐,26.93,21.0,31.58,41.2,36.91,40.65,42.04,50.57
319,319,1493A,87.5525,43.8711,铁路局,乌鲁木齐,39.95,38.71,40.9,44.07,40.69,46.99,43.07,51.68
320,320,1494A,87.6432,43.831,三十一中学,乌鲁木齐,52.13,32.65,45.68,51.67,46.3,52.47,52.79,58.83
321,321,1508A,112.9433,27.8614,板塘,湘潭,55.7,56.27,52.86,58.63,53.12,47.08,52.32,61.79
322,322,1511A,112.9118,27.8403,市监测站,湘潭,39.52,39.8,47.48,54.08,48.74,48.01,50.27,56.61
323,323,1512A,112.8937,27.8728,江麓,湘潭,54.01,56.37,56.45,61.15,57.6,51.37,54.82,59.49
324,324,1513A,112.9227,27.8159,岳塘,湘潭,53.16,54.42,52.26,56.36,54.63,53.31,54.85,63.01
325,325,1515A,113.135,27.8244,天台山庄,株洲,46.41,44.66,46.86,56.02,53.58,52.58,52.42,61.88
326,326,1518A,113.095,27.8867,株冶医院,株洲,45.77,48.18,49.97,48.62,54.89,51.7,51.79,60.67
327,327,1519A,113.167,27.8667,市四中,株洲,45.59,50.17,47.66,54.27,55.65,55.49,52.11,62.35
328,328,1520A,113.143,27.8381,火车站,株洲,51.49,44.26,52.04,54.19,52.89,50.37,50.81,61.49
329,329,1524A,113.13,27.8528,市监测站,株洲,46.01,52.08,48.13,58.45,52.73,54.0,52.82,62.94
330,330,1559A,113.251,27.8336,大京风景区(对照点),株洲,45.05,42.74,49.76,49.05,51.62,50.53,48.06,53.49
331,331,1562A,113.0048,27.9153,昭山,湘潭,45.17,46.78,46.96,53.32,52.92,46.1,49.3,50.4
332,332,1564A,112.4876,27.9164,韶山(对照点),湘潭,47.16,50.41,69.99,68.25,67.32,59.01,57.19,64.47
333,333,1585A,109.8756,40.6532,市环境监测站,包头,55.53,61.14,61.15,59.37,52.69,50.38,55.08,58.93
334,334,1587A,109.9991,40.5842,包头八中,包头,52.03,58.84,58.97,60.45,53.06,53.04,55.59,60.08
335,335,1588A,109.8538,40.6821,青山宾馆,包头,57.78,56.39,57.33,59.63,51.57,49.18,54.04,56.7
336,336,1589A,109.8642,40.6288,惠龙物流,包头,62.39,65.19,61.73,63.67,55.85,55.66,58.19,61.92
337,337,1590A,110.0377,40.5546,东河鸿龙湾,包头,65.23,64.13,58.05,63.12,58.79,57.96,57.66,58.68
338,338,1591A,110.0023,39.8129,综合楼,鄂尔多斯,72.53,82.16,88.04,81.02,76.92,79.57,78.97,73.6
339,339,1592A,109.9486,39.8261,巴音孟克林场办事处,鄂尔多斯,79.84,84.81,89.64,86.32,83.55,82.67,82.26,79.2
340,340,1593A,109.7736,39.5986,康泽苑,鄂尔多斯,83.19,74.95,79.27,80.05,75.35,75.81,76.83,74.77
341,341,1594A,109.8119,39.5989,华泰汽车城,鄂尔多斯,76.55,73.35,72.48,75.75,68.24,66.63,68.8,66.72
342,342,1595A,109.9734,39.7884,奥林花园,鄂尔多斯,73.06,81.02,79.33,77.97,70.09,70.9,72.18,65.44
343,343,1597A,122.2703,40.7094,大庆路,营口,78.32,78.61,80.09,76.89,70.61,66.82,64.43,71.63
344,344,1598A,122.215,40.6511,镜湖西路,营口,85.56,80.07,83.4,81.71,71.57,67.62,66.99,74.45
345,345,1600A,124.3303,40.0625,江湾东路,丹东,50.12,54.0,62.29,64.37,60.05,60.37,60.48,61.32
346,346,1601A,124.4256,40.1503,临江后街,丹东,54.96,72.02,58.45,57.01,59.54,59.8,57.48,62.2
347,347,1602A,124.3933,40.1461,元宝山,丹东,53.2,57.92,60.07,55.27,60.73,57.83,60.06,59.6
348,348,1603A,124.3633,40.1092,民主桥,丹东,44.33,55.97,60.26,57.88,54.59,56.92,58.49,59.25
349,349,1604A,122.0303,41.1489,开发区,盘锦,64.95,75.28,75.46,71.08,71.53,68.9,67.04,66.77
350,350,1605A,122.0485,41.0883,兴隆台,盘锦,56.41,78.18,75.59,73.72,64.66,62.98,61.67,64.56
351,351,1607A,120.9092,40.7136,龙港区,葫芦岛,59.48,71.08,83.76,72.59,70.11,67.71,63.84,69.59
352,352,1608A,120.8392,40.7514,化工街,葫芦岛,61.57,75.09,68.41,63.07,59.08,60.29,56.33,64.01
353,353,1609A,120.8341,40.7073,新区,葫芦岛,66.49,71.68,64.83,68.18,63.43,65.29,59.95,68.28
354,354,1610A,120.8695,40.7677,东城区,葫芦岛,61.79,73.64,69.15,63.16,59.4,59.06,56.24,60.63
355,355,1612A,118.5972,24.8978,津头埔,泉州,56.3,48.64,66.37,65.5,67.65,65.01,65.04,67.67
356,356,1618A,118.3429,35.0532,沂河小区,临沂,66.7,58.13,66.1,64.82,66.5,69.55,66.2,73.57
357,357,1619A,118.295,35.0583,鲁南制药厂,临沂,65.7,59.88,67.8,71.28,72.16,75.39,71.6,78.31
358,358,1620A,118.2794,34.9976,新光毛纺厂,临沂,66.23,63.86,71.11,70.53,68.15,67.73,65.32,72.5
359,359,1621A,118.3956,35.0888,河东保险公司,临沂,60.97,53.43,64.84,66.36,67.44,66.49,65.17,71.18
360,360,1625A,115.9848,36.4372,区政府,聊城,60.36,56.6,66.02,77.64,75.85,70.19,65.27,73.29
361,361,1629A,118.0018,37.3617,第二水厂,滨州,39.05,47.41,60.19,73.12,69.91,63.93,64.24,69.61
362,362,1630A,117.9776,37.393,北中新校,滨州,62.84,42.9,62.79,71.56,68.63,62.32,64.26,71.02
363,363,1631A,118.0414,36.8103,人民公园,淄博,49.06,52.91,64.51,67.55,66.84,66.72,66.33,72.1
364,364,1633A,117.8525,36.4847,双山,淄博,45.3,55.51,65.76,76.17,76.81,75.39,74.73,79.73
365,365,1635A,118.3092,36.8194,莆田园,淄博,55.49,57.42,65.51,72.67,72.8,67.44,68.13,75.58
366,366,1637A,117.558,34.8438,市中区政府,枣庄,67.69,63.62,72.44,74.82,72.06,68.76,69.16,80.04
367,367,1638A,117.2852,34.7837,薛城环保局,枣庄,61.44,61.98,70.7,72.83,71.04,74.42,77.25,79.5
368,368,1639A,117.5852,34.7745,峄城区政府,枣庄,63.99,66.39,70.58,69.06,72.81,72.25,71.38,79.75
369,369,1640A,117.7276,34.5578,台儿庄区环保局,枣庄,54.36,55.18,60.09,64.61,64.73,66.46,67.68,72.36
370,370,1641A,117.4518,35.0992,山亭区环保局,枣庄,90.95,87.55,86.17,96.35,86.4,82.24,80.49,93.42
371,371,1643A,121.3719,37.5433,轴承厂,烟台,55.34,57.89,65.96,73.27,72.01,73.98,75.22,82.58
372,372,1645A,121.4478,37.4822,莱山环保局,烟台,72.41,69.52,90.21,78.64,79.38,79.44,81.02,81.94
373,373,1646A,121.2611,37.4967,福山环保局,烟台,69.04,60.39,66.72,72.91,71.52,69.98,71.1,69.11
374,374,1650A,119.1437,36.7023,环保局,潍坊,77.68,69.16,72.54,72.58,66.56,66.37,64.85,73.52
375,375,1653A,116.6251,35.4302,火炬城,济宁,70.98,67.73,72.24,75.19,70.25,71.32,65.06,78.84
376,376,1655A,116.5491,35.4042,电化厂,济宁,63.1,61.07,69.69,74.38,72.86,71.08,69.74,80.01
377,377,1656A,117.1437,36.1937,监测站,泰安,57.78,75.46,73.45,75.1,73.81,75.27,76.75,78.66
378,378,1657A,117.0885,36.2017,人口学校,泰安,57.79,83.95,84.44,78.3,78.1,81.12,85.2,81.95
379,379,1659A,119.471,35.4209,监测站,日照,63.94,58.71,60.11,63.37,60.73,60.44,60.77,61.74
380,380,1660A,119.523,35.4216,市政府广场,日照,68.52,65.91,70.53,69.28,70.25,71.73,71.16,70.36
381,381,1662A,122.1214,37.4236,华夏技校,威海,72.47,66.96,82.84,88.38,87.89,83.33,81.78,86.59
382,382,1663A,122.0508,37.5236,山大分校,威海,85.99,85.06,90.68,91.23,90.97,86.75,88.0,93.52
383,383,1666A,118.6614,37.4309,市环保局,东营,74.58,77.27,77.02,78.25,76.4,75.83,71.65,78.41
384,384,1669A,113.5824,24.7733,市八中,韶关,53.9,53.56,60.11,58.95,53.42,50.11,57.38,62.99
385,385,1671A,113.5917,24.7972,园林处,韶关,53.11,45.04,59.81,58.63,51.09,55.12,55.48,59.42
386,386,1672A,113.6735,24.7791,韶关学院,韶关,49.12,50.72,58.06,53.81,49.65,52.72,52.97,54.83
387,387,1673A,113.5971,24.6863,曲江监测站,韶关,47.53,45.54,50.88,50.59,45.79,49.8,48.99,54.93
388,388,1674A,116.6794,23.3667,金平子站,汕头,69.05,57.45,64.57,76.09,73.87,68.58,70.48,71.31
389,389,1675A,116.7244,23.3633,龙湖子站,汕头,71.14,64.37,69.09,74.4,76.26,68.41,72.66,72.98
390,390,1676A,116.7258,23.2775,濠江子站,汕头,74.33,67.32,70.71,77.07,77.71,71.22,69.75,73.34
391,391,1677A,116.7519,23.4714,澄海子站,汕头,67.03,61.63,61.84,72.44,68.86,65.41,71.32,70.83
392,392,1678A,116.6092,23.2539,潮阳子站,汕头,72.76,66.18,74.12,74.79,78.99,73.21,73.25,72.65
393,393,1680A,110.3539,21.2706,湛江影剧院,湛江,63.16,56.96,64.36,70.3,67.58,62.92,63.66,65.63
394,394,1681A,110.3928,21.2228,市环境监测站,湛江,62.78,57.89,68.29,73.29,70.76,62.29,62.37,69.35
395,395,1682A,110.4019,21.1997,环保局宿舍,湛江,59.87,66.35,69.13,72.89,72.76,64.25,66.65,68.65
396,396,1683A,110.4111,21.2028,霞山游泳场,湛江,74.46,72.73,72.16,72.97,72.98,64.85,66.25,68.49
397,397,1684A,110.3316,21.2679,麻章区环保局,湛江,57.88,65.66,65.94,68.77,67.82,59.52,58.91,61.98
398,398,1686A,111.0286,21.4688,电白南海,茂名,70.78,58.79,64.95,64.63,66.6,57.37,62.49,63.88
399,399,1687A,110.9294,21.6533,茂石化七小,茂名,60.89,56.29,56.26,61.56,64.26,56.26,59.78,60.95
400,400,1688A,110.9107,21.6687,健康路,茂名,56.36,50.81,67.26,67.46,71.7,60.63,62.43,63.03
401,401,1690A,116.1231,24.3284,梅江月梅,梅州,44.86,41.79,51.76,49.76,46.77,46.7,50.31,48.83
402,402,1691A,116.0797,24.2719,梅县新城,梅州,45.95,44.28,47.54,50.22,48.66,47.5,48.89,46.94
403,403,1692A,116.1248,24.2654,环境监控中心,梅州,43.88,40.52,41.18,42.48,43.55,43.46,47.04,45.92
404,404,1693A,115.3653,22.775,市环保局,汕尾,70.96,69.31,70.98,77.62,76.58,71.83,74.66,69.84
405,405,1694A,115.3706,22.7898,市政府,汕尾,76.3,64.34,69.6,73.36,71.14,64.5,71.31,69.72
406,406,1695A,115.3622,22.7925,新城中学,汕尾,63.89,68.11,72.14,77.54,77.45,70.67,71.37,69.59
407,407,1696A,114.6778,23.7569,源西(对照点),河源,50.65,47.31,47.54,52.35,52.06,50.63,56.88,52.09
408,408,1697A,114.6944,23.7586,东埔,河源,51.99,52.06,56.87,59.91,55.06,55.85,60.59,57.11
409,409,1698A,114.6892,23.7233,老城,河源,54.72,51.04,50.85,57.37,51.73,54.7,60.21,57.12
410,410,1701A,111.9491,21.8658,马南垌,阳江,62.33,57.0,59.7,57.76,57.02,57.47,61.12,60.98
411,411,1703A,113.0208,23.7106,凤城街办,清远,45.96,53.49,57.32,56.88,52.5,56.89,60.35,58.86
412,412,1705A,116.6367,23.6719,西园路(对照点),潮州,77.76,67.23,63.24,65.64,61.07,56.92,65.02,60.63
413,413,1706A,116.6447,23.6706,档案局,潮州,73.56,58.48,59.43,68.2,62.95,57.6,63.55,60.74
414,414,1708A,116.3701,23.5345,新兴,揭阳,56.66,48.96,62.05,66.94,66.89,60.02,65.16,64.56
415,415,1710A,116.3611,23.5626,东兴,揭阳,52.98,45.92,60.6,63.58,63.17,58.57,63.49,60.65
416,416,1711A,116.4151,23.5294,渔湖,揭阳,62.49,54.8,60.85,65.87,64.39,60.14,62.98,60.24
417,417,1714A,112.0539,22.9539,牧羊,云浮,33.16,39.1,43.32,39.63,39.55,42.18,44.54,46.9
418,418,1718A,115.4208,35.2464,气象局,菏泽,66.1,78.3,69.51,75.17,67.77,65.12,69.95,80.31
419,419,1719A,115.4747,35.2375,市政协,菏泽,68.59,73.38,75.22,77.85,74.81,72.83,73.21,82.64
420,420,1724A,113.3444,40.0917,大同大学,大同,56.06,64.11,64.9,65.49,59.38,62.14,60.47,65.01
421,421,1726A,113.2711,40.0844,教育学院,大同,61.62,53.22,54.74,57.77,53.09,54.47,56.47,57.29
422,422,1727A,113.1147,36.1547,清华站,长治,79.53,68.38,70.64,78.09,74.9,68.72,66.86,70.53
423,423,1728A,113.1031,36.1989,监测站,长治,68.05,58.94,66.45,77.57,72.15,68.6,65.17,71.54
424,424,1730A,113.0886,36.2125,审计局,长治,61.76,66.82,79.27,80.89,75.86,71.87,68.14,72.12
425,425,1731A,113.0844,36.1856,长治八中,长治,64.24,60.08,72.66,78.9,74.67,72.78,68.0,70.16
426,426,1733A,111.5531,36.0783,临钢医院,临汾,57.75,57.91,67.42,71.91,68.68,60.25,61.72,61.11
427,427,1734A,111.5028,36.0714,技工学校,临汾,44.12,47.84,69.59,71.59,68.6,63.71,62.42,62.24
428,428,1736A,111.5018,36.0855,市委,临汾,41.82,44.85,65.8,69.77,66.6,58.63,64.22,63.48
429,429,1738A,113.5758,37.8572,市中心,阳泉,46.99,55.96,58.73,59.04,58.62,58.14,61.34,57.57
430,430,1739A,113.4894,37.8731,赛鱼,阳泉,46.63,48.37,61.71,59.48,55.73,55.06,57.49,53.58
431,431,1740A,113.5819,37.8486,南庄,阳泉,51.55,56.99,65.22,62.71,63.33,62.09,62.86,61.34
432,432,1742A,113.5614,37.8703,平坦,阳泉,45.31,63.04,69.1,57.27,57.75,57.67,60.78,59.6
433,433,1743A,113.5158,37.8392,大阳泉,阳泉,41.21,74.69,94.93,85.48,81.92,81.22,82.62,82.87
434,434,1744A,118.9233,42.2816,松山一中,赤峰,35.42,60.68,58.33,54.58,54.53,59.16,58.78,64.49
435,435,1745A,118.9576,42.2728,哈达街,赤峰,46.31,50.53,59.57,58.3,55.99,58.95,59.45,66.35
436,436,1746A,118.8788,42.2554,天义路,赤峰,55.94,77.5,64.81,58.4,62.76,63.78,63.88,67.5
437,437,1748A,123.044,41.1196,深沟寺,鞍山,67.35,61.44,77.93,73.64,69.97,65.92,63.85,65.56
438,438,1749A,123.011,41.0931,太阳城,鞍山,61.73,56.54,77.41,67.62,68.24,64.06,60.48,64.83
439,439,1750A,123.0485,41.1442,太平,鞍山,50.58,52.61,68.8,69.57,66.91,64.35,60.9,64.04
440,440,1751A,122.9642,41.0971,铁西三道街,鞍山,49.49,54.88,63.93,61.39,61.37,57.49,53.3,58.6
441,441,1752A,122.9341,41.0833,铁西工业园区,鞍山,60.16,54.91,65.69,54.84,61.32,58.38,54.14,59.91
442,442,1753A,123.022,41.0821,明达新区,鞍山,64.84,68.12,72.6,65.22,70.47,68.14,63.77,67.03
443,443,1755A,123.7977,41.8491,望花区,抚顺,51.14,59.67,52.84,62.15,58.02,56.83,53.38,54.54
444,444,1757A,124.0436,41.8611,东洲区,抚顺,64.21,66.91,64.14,65.33,62.55,62.46,58.18,58.35
445,445,1759A,124.0972,41.8961,大伙房水库,抚顺,68.29,65.83,70.91,71.41,69.76,65.61,62.22,61.38
446,446,1760A,123.7086,41.8391,沈抚新城,抚顺,54.37,63.72,56.51,60.24,57.5,56.3,51.28,53.22
447,447,1761A,123.8275,41.3064,大峪,本溪,68.04,59.56,53.25,56.66,61.8,56.18,56.08,52.33
448,448,1762A,123.7567,41.3325,溪湖,本溪,56.76,52.24,44.47,53.78,51.74,51.1,47.13,50.2
449,449,1763A,123.7169,41.3094,彩屯,本溪,39.02,45.68,50.79,45.68,45.2,45.05,42.14,44.33
450,450,1764A,123.7669,41.2864,东明,本溪,40.09,48.11,44.48,52.84,55.34,53.68,53.91,52.88
451,451,1765A,123.7992,41.2664,新立屯,本溪,56.37,63.04,60.85,54.0,57.15,57.01,56.62,55.26
452,452,1766A,123.8142,41.3472,威宁,本溪,44.29,50.41,46.69,50.45,46.72,46.73,45.63,43.99
453,453,1767A,121.1115,41.0879,南山,锦州,66.14,73.9,76.89,62.55,63.72,63.7,58.87,60.24
454,454,1768A,121.0533,40.8434,开发区,锦州,56.95,70.95,60.18,60.43,56.56,56.75,52.49,59.24
455,455,1769A,121.1836,41.1119,百股街道,锦州,68.3,75.72,61.93,63.59,59.74,58.12,55.62,64.52
456,456,1770A,121.1178,41.1222,天安街道,锦州,65.48,72.04,79.97,62.86,60.88,62.29,57.49,63.25
457,457,1772A,126.54,43.8622,哈达湾,吉林,56.34,69.13,70.32,68.17,64.95,66.22,62.16,67.15
458,458,1773A,126.5844,43.8358,东局子,吉林,66.25,65.18,66.75,65.15,63.04,60.27,58.35,64.51
459,459,1774A,126.5052,43.8245,电力学院,吉林,67.72,71.2,66.61,61.13,60.73,59.34,56.06,62.39
460,460,1775A,126.6133,43.8972,江北,吉林,72.96,71.2,64.52,64.88,63.54,62.21,57.9,62.82
461,461,1776A,126.555,43.8306,江南公园,吉林,68.83,70.54,69.54,67.55,62.42,62.23,60.49,64.01
462,462,1779A,123.9305,47.3636,安居小区,齐齐哈尔,55.63,41.9,59.08,61.76,53.91,56.61,59.61,54.99
463,463,1780A,123.9488,47.3386,中心广场,齐齐哈尔,51.72,38.09,53.61,59.41,55.91,57.3,57.96,57.5
464,464,1781A,123.9483,47.3227,农牧车辆厂,齐齐哈尔,52.35,51.95,60.11,60.88,49.09,51.22,57.73,55.43
465,465,1783A,123.945,47.2988,市环境监测站,齐齐哈尔,46.91,52.64,57.95,58.7,52.47,53.37,59.34,57.0
466,466,1785A,129.6115,44.5782,文化广场,牡丹江,44.72,34.25,44.12,48.92,44.84,48.52,48.56,50.62
467,467,1787A,129.6364,44.6075,机车工厂,牡丹江,45.3,40.46,45.67,47.99,46.12,45.93,46.81,47.2
468,468,1788A,129.6386,44.5462,第一中学,牡丹江,67.34,62.45,58.29,54.67,51.78,52.84,52.39,52.45
469,469,1789A,124.81117,46.03138,大同区,大庆,57.21,58.54,61.12,67.98,63.02,65.43,67.39,59.96
470,470,1790A,125.129,46.533,龙凤区,大庆,47.95,59.56,60.07,58.86,56.21,62.05,62.79,56.03
471,471,1791A,124.902,46.408,红岗区,大庆,73.18,71.74,70.81,65.28,60.22,65.68,66.39,59.06
472,472,1793A,124.9042,46.6215,让胡路区,大庆,64.98,69.76,64.03,63.95,60.34,65.41,66.86,57.97
473,473,1794A,118.3606,31.3519,监测站,芜湖,45.07,62.19,57.64,62.6,60.55,55.89,58.81,66.35
474,474,1795A,118.3714,31.4134,科创中心,芜湖,25.45,54.45,67.33,69.35,62.51,56.73,57.28,64.87
475,475,1796A,118.3673,31.3131,四水厂,芜湖,45.06,68.56,60.29,67.71,62.91,54.17,60.76,69.61
476,476,1798A,118.5092,31.6837,湖东路四小,马鞍山,52.39,58.98,68.06,67.37,64.8,60.14,61.51,73.94
477,477,1799A,118.5024,31.6449,开发区,马鞍山,60.77,54.23,64.42,64.5,65.3,56.59,60.96,67.51
478,478,1800A,118.5228,31.7231,慈湖,马鞍山,56.81,59.56,61.56,70.21,63.1,59.04,60.78,68.74
479,479,1803A,115.9872,29.6815,十里,九江,45.87,50.86,49.77,53.78,55.25,55.94,53.88,66.09
480,480,1804A,115.9584,29.7046,茅山头,九江,45.32,50.29,57.66,58.47,58.16,57.27,55.09,64.75
481,481,1805A,115.9877,29.7295,西园,九江,52.95,57.91,62.15,60.43,59.4,58.62,50.55,62.42
482,482,1806A,116.0172,29.6547,五七二七厂,九江,59.49,54.86,70.43,68.05,65.91,65.29,63.93,73.65
483,483,1808A,115.9114,29.6038,综合工业园,九江,58.95,59.44,58.85,59.43,58.83,56.41,53.14,62.77
484,484,1809A,116.0721,29.7535,石化总厂,九江,54.03,56.43,56.4,61.39,64.46,58.58,53.85,67.34
485,485,1810A,115.9773,29.5698,庐山气象台(对照点),九江,86.6,98.67,120.91,120.18,99.29,92.09,90.38,92.69
486,486,1812A,112.3931,34.6516,市委党校,洛阳,53.75,65.18,67.01,63.76,63.18,59.9,63.17,71.88
487,487,1814A,112.4657,34.6871,豫西宾馆,洛阳,38.49,59.76,64.69,64.27,59.7,55.35,62.15,65.82
488,488,1815A,112.494,34.6886,河南林校,洛阳,43.32,61.99,60.07,58.6,60.18,57.82,61.77,67.31
489,489,1816A,112.3844,34.623,开发区管委会,洛阳,64.67,77.7,66.42,62.9,66.86,62.93,66.5,70.32
490,490,1817A,112.4267,34.6258,市委新办公区,洛阳,71.56,64.28,59.92,66.55,60.99,60.08,63.41,68.84
491,491,1820A,114.361,36.0681,银杏小区,安阳,44.36,52.66,59.76,67.77,67.37,65.61,64.21,67.62
492,492,1826A,114.2885,34.7965,世纪星幼儿园,开封,55.99,62.36,64.95,71.67,73.7,67.82,71.38,73.26
493,493,1828A,113.2269,35.2127,市环保局,焦作,52.35,57.95,65.27,71.04,69.84,69.18,70.64,71.44
494,494,1834A,113.182,33.774,平顶山工学院,平顶山,74.31,75.05,72.44,73.05,73.55,71.3,69.71,74.05
495,495,1835A,111.1922,34.7752,市政府,三门峡,56.06,63.68,60.78,62.16,57.51,60.54,62.66,68.8
496,496,1836A,111.1587,34.7942,开发区,三门峡,45.77,61.99,63.01,68.11,62.66,63.08,65.34,70.54
497,497,1840A,111.2992,30.6981,白龙岗,宜昌,39.92,41.2,47.29,49.27,51.48,50.65,43.94,56.8
498,498,1841A,111.3549,30.6465,伍家岗,宜昌,39.5,42.83,40.82,45.15,50.49,42.0,39.94,53.35
499,499,1842A,111.2628,30.6961,点军区,宜昌,45.56,41.24,47.58,47.2,50.73,49.37,46.66,54.99
500,500,1843A,111.3275,30.7819,夷陵区,宜昌,30.05,53.27,51.6,50.61,51.75,48.99,45.07,58.12
501,501,1844A,112.2494,30.3197,市图书馆,荆州,66.07,61.49,54.7,63.4,60.58,57.83,57.14,69.96
502,502,1845A,112.2008,30.3544,市委党校,荆州,61.9,65.31,56.45,61.91,60.18,59.45,58.29,68.97
503,503,1847A,113.1094,29.3578,南湖风景区,岳阳,54.32,55.32,46.48,59.25,60.71,54.4,56.71,68.99
504,504,1848A,113.1493,29.4251,城陵矶,岳阳,52.77,52.36,49.24,64.34,58.01,53.29,53.95,60.87
505,505,1849A,113.1497,29.3575,开发区,岳阳,66.13,61.7,57.09,65.06,60.24,54.66,58.64,64.87
506,506,1850A,113.2621,29.4758,云溪区,岳阳,63.37,64.69,58.17,68.12,65.87,59.25,60.6,68.15
507,507,1851A,112.9943,29.4402,君山区,岳阳,69.76,69.38,73.61,74.92,72.41,65.51,66.22,68.06
508,508,1852A,113.2117,29.355,金凤水库(对照点),岳阳,71.84,63.38,57.7,65.65,64.7,57.89,61.37,65.96
509,509,1854A,111.6975,28.9703,市二中,常德,51.23,59.51,64.0,62.94,62.6,54.15,57.01,60.67
510,510,1857A,111.7158,29.1456,白鹤山(对照点),常德,34.16,57.01,81.39,75.22,80.86,70.37,71.54,73.39
511,511,1858A,110.5319,29.1217,永定新区,张家界,46.02,54.09,55.48,52.55,49.79,39.94,45.93,55.65
512,512,1860A,110.5594,29.3547,未央路,张家界,47.23,53.89,52.75,50.47,50.81,42.42,40.79,51.98
513,513,1862A,110.4144,25.3167,电子科大尧山校区(对照点),桂林,54.93,54.97,66.65,64.66,62.68,58.94,57.26,68.34
514,514,1863A,110.2819,25.2697,监测站,桂林,62.11,59.87,57.96,60.02,61.38,56.99,56.68,66.22
515,515,1864A,110.3089,25.2708,龙隐路小学,桂林,64.98,63.81,62.81,62.0,58.31,54.4,58.38,65.99
516,516,1865A,110.2869,25.2178,八中,桂林,52.1,54.22,57.84,59.04,58.91,57.41,55.08,63.53
517,517,1867A,109.1436,21.4086,海滩公园,北海,73.7,74.04,77.93,80.42,70.85,64.87,71.44,71.06
518,518,1868A,109.0981,21.4661,新市环保局,北海,76.46,85.31,67.31,67.78,72.02,62.93,65.96,66.7
519,519,1869A,109.1778,21.5233,北海工业园,北海,62.39,65.27,61.87,58.7,53.09,51.94,60.76,59.8
520,520,1870A,109.4856,24.3895,柳东小学,柳州,72.62,67.96,61.95,61.02,62.83,59.41,61.02,66.59
521,521,1871A,109.4157,24.3277,环保监测站,柳州,57.86,52.05,49.72,50.77,46.92,49.55,52.14,58.72
522,522,1872A,109.389,24.341,河西水厂,柳州,74.0,50.47,49.77,50.73,52.79,48.63,48.61,51.39
523,523,1873A,109.4311,24.2921,市四中,柳州,52.47,50.16,47.57,47.65,44.66,49.16,50.02,57.8
524,524,1875A,109.4958,24.3134,古亭山,柳州,59.05,53.27,49.03,50.22,52.5,51.02,52.32,58.44
525,525,1876A,109.5078,18.2489,河东子站,三亚,55.99,50.54,54.19,53.41,58.85,54.06,57.8,59.25
526,526,1877A,109.4964,18.2681,河西子站,三亚,58.16,54.11,56.27,53.12,56.96,52.11,53.46,56.71
527,527,1878A,104.7778,31.4741,富乐山,绵阳,57.75,57.82,54.55,64.16,52.41,56.24,54.56,59.07
528,528,1879A,104.7563,31.4535,市人大,绵阳,43.11,46.14,45.56,49.24,43.32,47.8,48.32,52.92
529,529,1880A,104.6697,31.4668,高新区自来水公司,绵阳,48.68,49.3,45.89,52.34,48.45,51.53,46.16,54.36
530,530,1881A,104.7287,31.5075,三水厂,绵阳,45.48,46.13,44.45,50.94,42.69,46.46,44.5,49.45
531,531,1882A,104.563,28.793,石马中学(对照点),宜宾,42.32,27.96,45.55,55.75,52.8,52.03,50.08,53.03
532,532,1883A,104.6201,28.7728,市委,宜宾,36.96,36.72,45.36,50.05,45.56,44.53,45.11,52.44
533,533,1884A,104.6055,28.793,宜宾四中,宜宾,37.89,37.46,47.96,54.43,48.52,48.07,46.09,55.98
534,534,1885A,104.639,28.7562,市政府,宜宾,52.01,57.03,54.58,53.91,49.42,47.34,46.58,56.22
535,535,1886A,104.5742,28.7199,黄金嘴,宜宾,44.62,49.33,52.83,56.64,51.06,49.84,49.4,56.28
536,536,1888A,101.6891,26.571,弄弄坪,攀枝花,42.89,39.0,47.28,56.37,56.19,48.98,54.21,49.85
537,537,1889A,101.5769,26.5928,河门口,攀枝花,50.44,48.89,46.05,55.55,56.1,49.37,57.15,51.02
538,538,1890A,101.7169,26.585,炳草岗,攀枝花,42.15,38.49,41.37,47.68,48.29,44.47,45.81,43.77
539,539,1891A,101.7369,26.5008,仁和,攀枝花,50.83,50.59,46.45,49.82,53.42,53.07,59.01,54.11
540,540,1893A,105.4324,28.9634,九狮山(对照点),泸州,56.21,58.63,48.23,49.17,42.13,42.53,42.46,44.63
541,541,1894A,105.4427,28.9063,小市上码头,泸州,43.7,51.25,43.34,46.8,46.11,48.02,48.1,56.82
542,542,1895A,105.4241,28.8573,兰田宪桥,泸州,34.89,51.68,44.59,47.08,45.63,44.74,44.61,51.07
543,543,1896A,105.4379,28.8833,市环监站,泸州,35.94,43.94,41.09,47.67,43.54,45.23,44.83,54.88
544,544,1901A,104.4239,31.1208,东山公园,德阳,64.37,70.54,66.57,68.22,58.31,62.09,58.53,64.74
545,545,1902A,104.3826,31.1317,西小区,德阳,60.56,64.45,52.64,52.38,46.02,49.69,47.6,55.22
546,546,1904A,104.3553,31.1091,耐火材料厂,德阳,53.85,49.7,52.86,49.96,40.77,47.01,45.68,54.0
547,547,1906A,106.0789,30.8023,南充市委,南充,42.23,39.77,58.24,58.05,49.11,53.52,50.02,56.01
548,548,1907A,106.1031,30.8217,南充炼油厂,南充,36.6,48.85,66.33,63.89,52.52,45.21,46.71,56.37
549,549,1908A,106.1064,30.7856,高坪区监测站,南充,32.63,37.18,59.44,59.97,45.62,46.83,46.44,53.46
550,550,1909A,106.0642,30.7636,嘉陵区环保局,南充,38.39,47.16,66.77,66.09,48.34,52.93,47.96,57.35
551,551,1910A,106.1087,30.8388,市环境监测站,南充,36.99,56.69,68.44,78.35,54.43,56.79,51.6,56.25
552,552,1911A,106.9222,27.6869,丁字口,遵义,44.05,38.74,43.45,45.77,43.74,43.81,46.54,58.21
553,553,1912A,106.9242,27.7019,凤凰山,遵义,50.5,47.41,54.56,54.35,54.75,52.33,55.44,65.76
554,554,1913A,106.8906,27.6486,忠庄,遵义,48.9,43.81,40.18,47.77,45.68,47.51,47.67,55.86
555,555,1915A,106.9178,27.72,干田坝,遵义,45.91,42.5,42.41,45.86,44.92,45.78,45.58,57.32
556,556,1916A,103.7897,25.5035,环境监测站,曲靖,60.4,65.2,55.99,56.97,59.71,57.29,63.75,63.95
557,557,1917A,103.8,25.5364,烟厂办公区,曲靖,66.02,63.55,54.1,57.13,65.94,57.37,66.67,65.02
558,558,1919A,108.673,34.3155,实验中学,咸阳,49.04,50.92,54.84,59.62,48.88,48.73,48.01,56.28
559,559,1920A,108.7233,34.3617,师范学院,咸阳,39.61,51.64,55.14,57.65,54.01,53.96,50.39,57.3
560,560,1923A,109.0697,35.0697,王益区政府,铜川,38.03,56.91,51.39,57.07,53.43,53.89,48.71,57.7
561,561,1924A,108.9344,34.9058,新区管委会,铜川,72.7,78.03,78.79,75.79,69.07,69.42,65.94,73.08
562,562,1930A,107.185,34.3063,庙沟村(对照点),宝鸡,66.59,82.31,76.08,68.45,67.7,71.85,70.89,64.18
563,563,1932A,107.1906,34.3672,三陆医院,宝鸡,41.56,47.98,45.9,49.88,46.26,47.92,48.53,53.82
564,564,1933A,107.1431,34.3547,监测站,宝鸡,39.79,45.98,46.27,49.72,44.74,49.45,47.41,54.99
565,565,1934A,107.1186,34.3739,技工学校,宝鸡,40.51,55.82,52.66,51.06,51.47,55.87,53.97,59.63
566,566,1935A,107.3906,34.3528,陈仓区环保局家属楼,宝鸡,39.48,50.69,47.85,49.01,44.28,47.09,47.46,52.37
567,567,1939A,109.4974,34.4877,日报社,渭南,44.08,54.49,48.93,54.49,49.41,50.39,52.94,56.52
568,568,1940A,109.4636,34.493,体育馆,渭南,55.36,61.19,51.69,54.04,53.06,52.48,56.42,60.54
569,569,1941A,109.4259,34.5023,高新一小,渭南,43.84,54.08,55.86,53.38,54.09,52.46,52.95,59.34
570,570,1943A,102.1725,38.5339,新川苑,金昌,87.05,83.52,79.9,81.52,80.76,73.65,72.0,76.96
571,571,1944A,102.1692,38.5167,天庆家园,金昌,63.76,69.71,86.92,80.03,83.01,78.63,73.18,76.28
572,572,1945A,98.2908,39.7711,气象局,嘉峪关,89.26,74.91,85.85,78.72,80.02,75.04,78.58,77.95
573,573,1947A,106.3394,38.817,沙湖旅游区(对照点),石嘴山,70.08,74.41,70.21,69.75,66.77,61.68,62.71,64.7
574,574,1948A,106.3668,39.0145,大武口朝阳西街,石嘴山,73.65,73.55,73.7,73.43,67.4,65.96,71.02,65.72
575,575,1949A,106.7704,39.2282,惠农南大街,石嘴山,63.06,72.25,79.54,71.36,67.13,62.19,65.34,60.69
576,576,1951A,84.895,45.6094,长征新村,克拉玛依,89.86,86.58,69.34,71.88,75.27,65.38,65.16,66.85
577,577,1952A,84.8988,45.5893,南林小区,克拉玛依,55.16,73.63,69.97,63.5,65.48,60.36,61.05,62.33
578,578,1954A,84.905,44.3396,独山子区,克拉玛依,72.75,78.54,81.03,79.64,72.9,73.67,73.37,74.46
579,579,1955A,85.6979,46.098,乌尔禾区商贸楼,克拉玛依,62.46,62.75,59.58,63.94,63.34,55.07,57.93,58.37
580,580,1957A,86.1972,41.7166,棉纺厂,巴音郭楞州,61.05,53.28,59.92,68.18,65.61,66.54,65.62,69.15
581,581,1961A,117.532,36.6868,东山小学,济南,63.11,74.44,72.96,70.32,69.3,74.81,73.77,78.85
582,582,1982A,122.0693,37.2174,文登开发区,威海,71.47,75.4,82.2,74.67,77.27,73.28,73.86,77.5
583,583,2054A,114.1099,32.1059,平桥分局,信阳,58.56,59.21,61.46,73.64,71.02,68.37,66.32,72.87
584,584,2064A,113.9956,32.1271,南湾水厂,信阳,68.07,67.63,76.1,85.01,82.34,77.94,74.2,81.27
585,585,2065A,114.0775,32.1195,市酿酒公司,信阳,63.31,62.98,66.57,74.36,71.67,68.52,64.01,72.15
586,586,2066A,114.0609,32.1399,审计局,信阳,57.02,59.17,62.95,71.47,68.26,64.76,60.16,71.58
587,587,2067A,114.6613,33.6128,市环境监测站,周口,40.76,62.88,66.01,74.57,71.58,67.8,65.61,77.34
588,588,2068A,114.6758,33.6347,周口师范,周口,74.66,70.06,77.8,76.74,73.04,68.77,65.82,77.22
589,589,2069A,114.6546,33.5979,市运管处,周口,39.03,63.72,71.48,76.45,74.87,67.64,65.92,77.28
590,590,2070A,114.6369,33.6406,川汇区环保局,周口,52.36,68.35,75.18,77.09,75.39,70.49,67.79,76.96
591,591,2160A,112.85,35.5051,自来水公司,晋城,37.58,52.53,73.93,78.98,74.67,72.3,73.92,76.1
592,592,2161A,112.8318,35.4936,白云商贸,晋城,31.65,51.46,71.15,76.43,74.53,71.08,73.61,75.38
593,593,2162A,112.8508,35.4887,市环保局,晋城,39.28,47.57,73.57,72.04,70.18,69.27,70.08,72.72
594,594,2163A,112.8676,35.4897,技术学院,晋城,42.11,48.78,71.87,69.49,71.0,70.61,70.16,71.54
595,595,2166A,112.4397,39.3522,平朔,朔州,77.42,72.24,71.13,65.27,59.86,61.15,61.1,60.14
596,596,2167A,112.4575,39.3617,朔唯,朔州,72.2,71.12,63.83,60.75,57.0,59.43,57.27,58.64
597,597,2168A,112.4258,39.3197,区政府,朔州,92.54,78.75,67.35,74.67,67.82,67.88,66.35,68.79
598,598,2169A,112.4072,39.3278,市环保局,朔州,71.73,73.74,71.37,70.97,66.93,66.37,65.13,67.06
599,599,2171A,112.7532,37.6945,锦纶小区,晋中,39.48,47.31,59.85,65.56,63.06,61.67,63.58,65.88
600,600,2173A,112.7249,37.7067,南都小区,晋中,49.48,52.79,64.27,65.74,65.5,63.29,64.38,67.99
601,601,2174A,112.6991,37.6982,榆次区政府,晋中,39.73,51.89,64.46,63.19,64.29,60.87,63.3,64.51
602,602,2175A,110.9956,35.0147,运城中学,运城,66.8,57.6,83.49,84.44,82.95,79.94,78.59,80.46
603,603,2178A,110.9686,35.0303,地区技校,运城,67.92,51.51,82.6,81.9,76.59,72.75,72.97,76.63
604,604,2181A,112.7383,38.4519,开发区,忻州,51.99,57.87,65.2,60.18,56.54,59.99,61.46,61.13
605,605,2182A,112.7003,38.4928,会展中心,忻州,60.76,51.35,57.22,57.83,56.91,57.28,55.17,54.62
606,606,2183A,111.1406,37.5211,环保局,吕梁,46.61,40.87,43.9,46.32,46.3,44.25,46.37,46.85
607,607,2187A,106.8174,39.6973,市林业局,乌海,65.61,59.51,62.15,71.88,69.39,65.69,68.71,69.37
608,608,2188A,106.7907,39.6667,中海勃湾学校,乌海,67.17,71.71,72.73,77.3,73.82,72.23,72.22,71.98
609,609,2191A,122.2532,43.6801,艺术职业学校,通辽,82.74,92.68,86.08,80.67,72.65,69.2,68.56,68.37
610,610,2192A,119.7594,49.2261,区环保局,呼伦贝尔,49.37,51.13,56.89,58.25,56.35,56.29,57.01,56.41
611,611,2195A,107.4212,40.761,附二中,巴彦淖尔,70.79,69.74,67.36,72.56,72.45,67.86,71.97,69.16
612,612,2197A,113.1306,40.9923,集宁新区,乌兰察布,77.22,81.17,86.54,78.41,73.22,69.07,73.68,73.04
613,613,2200A,122.0392,46.0656,胜华新制药厂,兴安盟,62.38,60.72,62.03,63.28,59.33,57.58,56.0,56.28
614,614,2201A,121.9504,46.0741,科右前旗环保局,兴安盟,64.9,63.81,62.34,62.24,56.77,56.45,56.84,57.89
615,615,2202A,116.1042,43.9317,市环保监测站,锡林郭勒盟,58.43,63.44,64.57,67.84,62.78,65.83,68.28,67.47
616,616,2203A,116.0781,43.9311,市政府,锡林郭勒盟,34.23,67.4,73.53,78.39,66.99,66.38,67.07,66.75
617,617,2204A,105.6467,38.8363,西城区西花园(对照点),阿拉善盟,97.27,77.36,105.96,104.03,97.85,91.64,96.04,96.02
618,618,2205A,105.6985,38.8411,蒙二幼,阿拉善盟,93.75,101.69,103.06,102.97,95.0,88.39,95.02,97.57
619,619,2206A,105.724,38.8516,环保局新楼,阿拉善盟,92.64,105.31,106.97,108.11,104.93,100.37,104.95,101.07
620,620,2207A,121.6094,41.998,工业园区,阜新,47.5,58.41,70.91,70.18,64.16,67.16,61.53,66.2
621,621,2208A,121.6697,42.0279,长青街,阜新,62.17,62.49,67.78,66.21,59.57,66.76,59.03,62.59
622,622,2209A,121.6673,42.0705,农业园区,阜新,53.5,59.55,78.35,78.01,75.86,76.96,69.97,71.69
623,623,2210A,121.6717,42.0224,东苑,阜新,45.53,49.11,70.46,69.3,66.35,67.39,62.35,65.28
624,624,2211A,121.6506,42.0498,玉龙新城,阜新,59.99,57.87,67.66,65.69,62.11,66.61,58.66,59.13
625,625,2212A,123.2,41.1953,宏伟区,辽阳,68.26,76.39,73.5,69.51,63.47,67.23,60.33,62.32
626,626,2213A,123.1683,41.2495,新华园,辽阳,51.33,67.53,64.57,63.03,57.97,57.42,54.43,59.27
627,627,2214A,123.2354,41.2639,滨河路,辽阳,57.86,59.82,66.23,60.57,60.72,58.97,55.89,61.12
628,628,2215A,123.149,41.2991,铁西工业园,辽阳,52.79,54.0,63.19,58.27,51.43,54.65,50.34,55.03
629,629,2216A,123.8139,42.3022,汇工街西,铁岭,57.57,76.76,65.08,54.59,57.75,57.25,58.37,62.52
630,630,2218A,123.8486,42.2867,银州路东段,铁岭,61.38,64.85,69.1,58.58,60.7,62.24,55.92,60.08
631,631,2219A,123.7153,42.2217,金沙江路北,铁岭,63.27,68.09,60.74,57.25,60.37,58.87,56.14,58.39
632,632,2220A,120.4318,41.5881,西梁,朝阳,49.17,60.02,72.27,69.06,63.21,64.28,59.75,60.65
633,633,2221A,120.4521,41.5646,河畔小区,朝阳,26.77,56.72,78.24,78.44,69.57,69.4,64.7,65.09
634,634,2222A,120.4176,41.5648,八里堡,朝阳,59.11,50.48,70.17,67.94,64.09,62.93,57.44,59.89
635,635,2223A,120.3806,41.5969,农业园区,朝阳,22.11,37.94,60.79,73.71,68.95,66.86,60.04,59.69
636,636,2225A,124.4002,43.1713,一商场,四平,59.15,56.63,64.96,67.92,61.7,63.9,61.8,63.24
637,637,2226A,124.388,43.193,境园,四平,57.99,51.66,59.46,60.28,59.6,60.31,56.46,59.2
638,638,2227A,125.1358,42.8845,环保局,辽源,49.79,60.56,61.1,63.3,62.13,62.02,57.59,61.56
639,639,2229A,125.9358,41.7173,光明,通化,51.61,48.12,48.09,50.38,42.1,47.67,49.87,52.0
640,640,2230A,125.9446,41.7325,铁路,通化,49.22,49.02,48.26,52.2,38.1,47.25,49.74,49.94
641,641,2231A,126.4219,41.9171,喜丰,白山,54.14,56.46,52.33,50.54,48.07,48.53,46.66,50.84
642,642,2232A,126.4077,41.9419,环保局,白山,44.4,46.44,51.35,52.95,50.75,49.66,49.51,46.77
643,643,2236A,122.8738,45.5725,市环保局,白城,63.45,65.16,66.67,66.87,60.66,55.64,56.31,55.84
644,644,2237A,129.47,42.8883,妇幼医院,延边朝鲜族自治州,49.78,54.54,57.52,57.07,52.67,53.38,51.88,53.02
645,645,2239A,129.3964,42.8881,朝阳川镇医院,延边朝鲜族自治州,55.28,56.32,62.66,58.27,53.24,54.19,52.91,52.91
646,646,2240A,130.9762,45.3001,环保局,鸡西,43.56,51.35,48.4,49.47,45.06,52.92,55.89,50.37
647,647,2243A,130.9429,45.3039,第一中学,鸡西,64.09,58.68,59.65,62.96,57.68,54.02,55.76,57.73
648,648,2244A,130.2537,47.3416,哈啤分公司,鹤岗,53.77,58.78,56.78,64.24,59.32,54.74,60.27,60.02
649,649,2245A,130.2684,47.3086,斯达机电,鹤岗,66.09,58.46,56.52,66.22,56.27,53.71,59.77,60.02
650,650,2246A,130.3114,47.3388,东山纸板厂,鹤岗,54.52,51.14,52.09,55.54,51.2,46.74,51.57,51.72
651,651,2250A,131.1524,46.6554,环保局,双鸭山,59.67,40.05,49.02,53.89,47.89,49.66,56.32,59.28
652,652,2252A,128.5159,47.4311,环保局,伊春,47.26,40.9,47.8,50.2,48.11,46.16,49.5,50.49
653,653,2255A,130.2751,46.8028,佳纺,佳木斯,52.82,53.59,58.1,54.4,49.25,50.9,52.34,52.71
654,654,2258A,130.3648,46.8032,十一中,佳木斯,50.12,61.81,49.66,49.28,47.12,49.93,50.96,54.27
655,655,2259A,130.3794,46.7588,四丰(对照点),佳木斯,64.3,62.48,65.69,67.57,60.75,57.55,60.17,61.63
656,656,2262A,131.0518,45.8751,新一中(对照点),七台河,73.89,66.59,65.52,66.84,66.4,65.31,67.75,63.87
657,657,2264A,127.5144,50.2341,环保局,黑河,60.83,51.54,55.97,60.8,52.66,53.67,57.38,55.95
658,658,2267A,126.964,46.6528,党政办公中心,绥化,54.03,41.36,52.98,57.57,54.91,58.23,59.12,61.49
659,659,2270A,117.396,32.939,工人疗养院,蚌埠,68.96,50.59,71.78,81.44,65.39,65.84,68.71,75.88
660,660,2271A,117.3605,32.9427,百货大楼,蚌埠,65.81,60.97,70.93,76.14,58.77,70.93,70.47,74.66
661,661,2273A,117.4185,32.8911,蚌埠学院,蚌埠,59.84,67.64,73.68,76.06,68.53,69.82,68.05,70.93
662,662,2274A,117.3533,32.9673,淮上区政府,蚌埠,68.76,67.67,70.43,72.18,65.81,65.03,66.75,73.55
663,663,2275A,117.3145,32.8977,高新区,蚌埠,57.07,61.23,73.01,73.76,72.03,71.55,68.38,74.89
664,664,2277A,116.8305,32.7727,潘集区政府,淮南,63.41,60.97,78.02,74.99,68.17,74.06,70.35,72.22
665,665,2281A,116.6325,32.6201,焦岗湖风景区管理处(对照点),淮南,47.54,63.23,70.87,76.61,65.44,68.05,68.78,68.04
666,666,2282A,116.8004,33.975,监测站,淮北,60.62,54.32,69.3,72.18,72.5,71.21,65.83,78.38
667,667,2283A,116.8091,33.9007,烈山区政府,淮北,67.15,66.58,73.78,77.87,76.43,74.08,67.34,77.88
668,668,2284A,116.7856,33.9477,职业技术学院,淮北,69.59,67.85,75.55,77.78,74.22,73.2,65.72,76.15
669,669,2285A,117.8177,30.9412,市第四中学,铜陵,49.77,57.94,55.17,63.36,60.54,58.17,53.7,66.3
670,670,2286A,117.8059,30.9273,市公路局,铜陵,43.39,49.04,48.17,52.87,57.11,56.84,57.91,63.79
671,671,2287A,117.7807,30.9413,市新民污水厂,铜陵,48.51,64.48,57.81,57.65,61.93,55.81,49.34,58.33
672,672,2288A,117.7439,30.8792,市第九中学,铜陵,51.48,52.08,48.61,52.11,51.16,48.31,44.82,54.37
673,673,2289A,117.846,30.9413,车站新区,铜陵,53.57,69.34,57.71,56.14,61.29,56.58,52.68,62.82
674,674,2290A,117.8483,30.97,市职教基地,铜陵,46.3,52.45,53.69,63.93,63.25,53.23,54.12,63.94
675,675,2291A,117.0809,30.5177,环科院,安庆,38.02,60.41,69.8,77.06,75.47,69.48,61.07,70.28
676,676,2292A,117.0331,30.5119,马山宾馆,安庆,61.67,45.64,67.5,72.63,75.87,77.67,65.97,68.79
677,677,2295A,118.2903,29.6963,延安路89号,黄山,44.22,58.14,62.27,45.05,67.25,63.05,54.12,54.95
678,678,2296A,118.327,29.7178,黄山东路89号,黄山,32.36,47.06,55.05,47.12,54.75,57.5,49.98,54.12
679,679,2297A,118.1371,30.2756,黄山区政府5号楼,黄山,35.03,56.53,56.16,43.87,63.79,62.21,52.84,51.76
680,680,2298A,118.3093,32.3153,老年大学,滁州,28.36,76.59,85.38,71.81,69.66,69.88,66.99,74.46
681,681,2299A,118.3244,32.2786,人大宾馆,滁州,31.59,61.86,71.09,70.73,68.62,67.75,67.99,74.94
682,682,2301A,115.8277,32.8929,市监测站,阜阳,44.21,46.16,59.73,68.46,73.38,68.01,66.68,74.97
683,683,2303A,115.8554,32.8605,开发区,阜阳,71.65,45.6,59.22,67.68,70.08,66.49,63.86,72.05
684,684,2307A,116.5079,31.737,监测大楼,六安,35.61,72.36,76.06,81.41,59.01,74.02,70.68,71.77
685,685,2308A,116.4738,31.7643,皖西学院,六安,58.59,64.22,73.4,76.59,56.3,71.52,70.88,74.96
686,686,2310A,116.5567,31.7886,开发区,六安,28.26,49.86,63.75,71.1,52.84,71.96,68.44,67.77
687,687,2311A,115.8072,33.8399,污水处理厂,亳州,46.99,62.44,82.37,72.76,74.38,71.58,68.03,75.22
688,688,2314A,117.47,30.6618,池州学院,池州,45.73,54.4,63.3,61.46,65.73,57.33,62.51,66.96
689,689,2316A,118.7581,30.9454,鳌峰子站,宣城,72.26,64.15,73.91,65.56,62.12,69.5,69.31,66.66
690,690,2317A,118.7385,30.9743,敬亭山子站,宣城,53.89,54.52,61.65,66.76,63.35,66.94,70.41,65.31
691,691,2318A,118.7173,30.9427,开发区子站,宣城,52.6,63.9,66.33,67.12,65.09,69.52,70.33,67.07
692,692,2320A,119.0015,25.4553,莆田市监测站,莆田,53.29,60.06,77.67,75.69,71.77,71.64,68.61,70.94
693,693,2321A,119.1119,25.4561,涵江区六中,莆田,61.64,60.11,74.93,71.75,67.91,67.62,66.92,68.71
694,694,2322A,119.1013,25.3215,秀屿区政府,莆田,67.73,62.84,82.19,80.65,71.76,70.49,68.59,70.47
695,695,2324A,117.6211,26.2625,三钢,三明,25.51,35.02,44.77,43.88,41.14,43.97,41.26,47.8
696,696,2325A,117.635,26.2714,三明二中,三明,26.21,36.25,48.08,46.83,41.13,44.39,44.14,48.56
697,697,2326A,117.6028,26.2378,三元区政府,三明,30.43,29.73,41.27,41.62,35.65,41.13,42.05,45.97
698,698,2332A,118.1681,26.6369,南平市监测站,南平,42.56,43.69,49.53,50.16,49.3,51.66,47.3,53.96
699,699,2333A,118.1825,26.6489,南平铝业有限公司,南平,44.9,47.55,51.81,54.41,49.49,51.34,47.45,52.45
700,700,2334A,118.1756,26.6272,南平七中,南平,35.85,44.07,52.25,48.7,50.03,51.66,48.6,54.52
701,701,2336A,117.0217,25.1033,龙岩市监测站,龙岩,46.44,50.35,48.26,48.61,48.21,50.6,50.26,50.03
702,702,2337A,117.0258,25.0661,闽西职业技术学院,龙岩,41.0,42.11,45.25,46.87,44.21,47.12,47.08,46.92
703,703,2341A,119.5388,26.6612,宁德市监测站,宁德,48.15,43.09,61.36,59.34,52.18,56.98,52.57,58.0
704,704,2343A,117.2117,29.2933,老干部活动中心,景德镇,31.38,47.47,49.41,50.26,50.97,41.97,43.01,56.8
705,705,2344A,117.1894,29.2789,兽医站,景德镇,39.95,48.21,53.13,52.24,51.69,47.34,48.89,58.6
706,706,2345A,117.1547,29.2617,台达陶瓷,景德镇,31.95,49.33,51.94,49.65,46.98,46.47,45.47,55.8
707,707,2346A,117.2461,29.2956,陶研所,景德镇,43.75,50.43,47.51,47.46,45.0,44.87,42.92,52.69
708,708,2348A,113.8385,27.6434,中医院,萍乡,41.87,43.68,39.65,44.61,49.14,48.3,49.29,58.15
709,709,2350A,113.8676,27.6435,市环保局,萍乡,38.37,51.5,40.38,48.92,52.06,48.59,47.52,57.83
710,710,2351A,113.866,27.6198,安源区政府,萍乡,28.46,32.62,41.75,48.76,48.48,41.08,44.3,54.07
711,711,2353A,114.9886,27.8431,飞宇,新余,30.78,51.07,52.93,53.65,58.02,53.27,49.93,53.61
712,712,2354A,114.9231,27.8246,第二水厂,新余,36.47,40.74,57.03,54.86,57.88,55.32,50.33,56.61
713,713,2355A,114.9308,27.8036,市气象局,新余,30.8,38.97,50.74,51.43,54.0,51.55,46.69,52.73
714,714,2358A,117.0564,28.2642,新监测站,鹰潭,55.67,54.84,58.93,62.39,62.05,56.04,54.57,61.84
715,715,2360A,117.0222,28.2264,体育馆,鹰潭,55.62,60.3,55.51,58.91,59.18,58.12,53.52,61.38
716,716,2361A,117.0017,28.2131,三川水表,鹰潭,52.02,55.53,51.43,56.91,53.65,55.29,47.77,56.74
717,717,2363A,114.9367,25.8664,地委,赣州,48.06,52.53,60.52,58.69,60.58,61.72,55.21,61.01
718,718,2364A,114.9461,25.8481,气象台,赣州,54.3,54.83,59.86,63.53,62.36,63.2,57.24,64.74
719,719,2365A,114.9322,25.8333,市图书馆,赣州,53.26,53.11,62.88,61.69,66.3,67.52,54.34,65.22
720,720,2366A,114.8905,25.8471,华坚鞋城,赣州,59.4,57.04,59.72,60.3,63.18,64.66,60.46,65.17
721,721,2368A,114.9658,27.0999,市森林工业局,吉安,51.39,59.2,66.06,61.39,62.44,60.11,58.33,65.8
722,722,2369A,114.99,27.1312,市环境监测站,吉安,48.1,62.27,63.4,59.02,58.84,61.33,55.97,65.35
723,723,2370A,115.0093,27.0968,青原区法院,吉安,38.32,48.4,67.15,62.99,63.76,62.13,56.77,65.22
724,724,2373A,114.3956,27.7844,市石油公司,宜春,28.45,46.06,52.02,54.07,55.18,47.14,43.97,53.4
725,725,2374A,114.3703,27.7914,市气象局,宜春,41.16,52.51,48.88,49.39,55.51,53.09,48.98,58.03
726,726,2375A,114.4013,27.8074,市广电局,宜春,43.59,53.04,48.72,52.11,60.5,52.15,49.38,57.25
727,727,2377A,116.3544,27.9831,市站,抚州,55.67,50.94,55.04,55.98,61.71,61.95,59.59,65.52
728,728,2378A,116.3565,27.963,血防站,抚州,62.8,51.91,59.32,61.44,60.05,61.58,58.49,63.6
729,729,2379A,116.3564,28.0007,采茶剧团,抚州,53.93,51.7,54.01,57.21,59.86,59.7,56.93,63.21
730,730,2380A,116.385,27.9647,医学分院,抚州,56.56,47.14,55.36,61.02,61.08,61.57,57.89,63.3
731,731,2382A,117.9756,28.4436,市监测站,上饶,52.42,63.65,58.25,52.26,56.5,52.67,49.01,60.79
732,732,2383A,117.9519,28.4628,凤凰光学,上饶,51.41,53.12,48.81,48.43,54.33,53.97,52.85,56.77
733,733,2385A,114.17,35.9019,市监测站,鹤壁,53.09,58.72,65.29,68.7,68.37,61.94,64.71,68.25
734,734,2386A,114.2956,35.7511,市交警支队,鹤壁,52.7,54.32,66.19,71.8,67.26,63.17,63.84,62.27
735,735,2389A,113.836,35.311,环保西院,新乡,42.17,52.79,59.86,67.31,56.59,59.14,63.51,67.57
736,736,2390A,113.884,35.272,开发区,新乡,46.95,60.4,64.75,70.54,59.43,62.86,65.85,70.28
737,737,2391A,113.883,35.303,环保东院,新乡,42.5,48.32,66.45,69.42,61.91,60.27,66.74,70.91
738,738,2392A,115.0312,35.7636,环保局,濮阳,60.52,65.63,63.84,76.59,70.51,68.1,67.59,73.14
739,739,2394A,115.0574,35.7609,油田运输公司,濮阳,61.84,66.54,70.23,75.53,70.27,66.96,68.15,73.96
740,740,2395A,115.0866,35.7754,油田物探公司,濮阳,57.48,68.97,71.86,76.01,68.99,64.53,65.9,71.5
741,741,2396A,113.8276,34.0159,监测站,许昌,61.26,63.8,65.27,69.5,67.23,62.25,61.38,72.09
742,742,2399A,114.051,33.5699,三五一五工厂,漯河,68.77,64.03,62.22,66.52,66.39,63.68,65.99,73.2
743,743,2400A,114.0055,33.5698,漯河大学,漯河,69.13,69.06,61.46,68.67,71.44,68.2,68.67,76.31
744,744,2401A,114.0138,33.5828,市水利局,漯河,72.38,64.89,62.85,69.43,70.49,66.95,68.6,76.52
745,745,2402A,114.0261,33.5698,市广电局,漯河,71.66,65.67,60.09,70.79,72.03,64.78,67.5,74.65
746,746,2406A,112.5779,33.0144,气象站,南阳,61.09,76.1,74.16,73.88,73.13,70.8,67.2,76.45
747,747,2407A,112.548,32.9692,理工学院,南阳,65.63,78.16,76.51,68.75,71.54,68.07,66.13,73.68
748,748,2408A,115.6702,34.4285,环境监测站,商丘,61.14,64.56,66.76,68.14,67.72,67.49,67.87,75.35
749,749,2409A,115.6458,34.4045,粮食局,商丘,65.01,66.47,73.67,75.09,75.37,70.88,71.17,79.62
750,750,2410A,115.6293,34.3948,睢阳区环保局,商丘,66.81,62.26,64.15,69.68,67.21,66.83,66.56,76.5
751,751,2420A,114.0189,32.9656,市一纸厂,驻马店,67.65,62.36,68.32,69.29,68.47,68.66,64.28,73.0
752,752,2421A,114.0114,33.015,市彩印厂,驻马店,67.15,69.25,73.15,78.32,75.94,74.1,70.73,78.75
753,753,2422A,113.9976,32.9771,天方二分厂,驻马店,61.82,65.13,65.97,68.45,73.16,70.26,68.08,76.5
754,754,2424A,115.0817,30.2006,陈家湾,黄石,55.5,59.14,53.25,57.41,60.11,57.55,58.73,68.76
755,755,2429A,110.78,32.6494,滨河新村,十堰,38.97,32.01,52.17,53.03,51.19,52.41,47.42,59.8
756,756,2430A,110.7258,32.6389,刘家沟,十堰,52.23,51.73,54.31,56.81,55.54,54.64,52.27,64.11
757,757,2431A,110.8839,32.5714,铁二处,十堰,45.87,61.31,51.61,64.03,52.35,57.12,52.97,66.48
758,758,2432A,112.155,32.0197,襄城运动路,襄阳,52.88,57.88,59.32,61.37,61.01,61.98,58.19,71.38
759,759,2433A,112.1392,32.0564,樊城新华路,襄阳,54.3,57.71,53.0,62.17,62.71,64.75,60.94,72.28
760,760,2434A,112.1825,32.1142,高新管委会,襄阳,60.58,56.27,55.98,61.82,62.85,62.2,55.7,69.94
761,761,2435A,112.2106,32.0903,襄州航空路,襄阳,63.63,67.91,57.97,62.89,60.96,61.19,57.54,69.99
762,762,2436A,114.8938,30.3994,市政府,鄂州,70.36,67.51,52.36,62.56,58.8,58.97,56.79,62.59
763,763,2437A,114.8989,30.3714,赵家坝,鄂州,56.15,67.43,56.96,65.67,65.08,60.42,58.1,64.27
764,764,2439A,112.2014,31.0481,竹园小学,荆门,58.37,59.92,63.7,69.11,68.54,64.75,60.7,73.92
765,765,2440A,112.1969,30.9891,掇刀,荆门,61.04,62.68,66.65,69.55,69.59,70.12,64.42,76.39
766,766,2441A,112.2213,31.0386,石化一小,荆门,54.26,47.76,55.99,66.28,67.83,63.6,59.87,71.12
767,767,2443A,113.9153,30.9285,文化路,孝感,59.18,64.54,60.95,68.26,67.35,62.99,62.65,67.43
768,768,2444A,113.942,30.9075,东城区,孝感,58.15,56.5,62.4,71.46,66.72,64.53,64.41,68.27
769,769,2446A,114.9028,30.4742,职工中心,黄冈,76.96,75.87,66.8,73.52,69.0,63.99,65.98,72.0
770,770,2447A,114.3175,29.8142,森林公园(对照点),咸宁,56.78,62.2,62.54,66.8,70.66,75.82,75.78,80.27
771,771,2448A,114.3107,29.8454,市发改委,咸宁,60.61,63.82,63.25,69.22,66.25,60.98,61.58,69.36
772,772,2449A,114.2936,29.8566,咸安区政府,咸宁,61.33,60.71,64.16,69.58,66.95,58.87,60.51,68.97
773,773,2451A,113.3583,31.7275,市委党校,随州,58.41,54.34,57.68,64.64,64.78,61.31,60.34,68.42
774,774,2452A,113.3833,31.6908,市林业局,随州,67.03,72.29,65.52,68.76,69.58,64.72,64.63,73.29
775,775,2453A,113.3983,31.7308,市立交桥水厂,随州,52.02,64.69,63.35,62.08,65.45,61.33,58.59,64.75
776,776,2454A,109.4978,30.2981,湖北民院,恩施土家族苗族自治州,37.48,36.59,39.23,35.61,39.29,36.46,37.29,46.21
777,777,2455A,109.4707,30.2798,州电力总公司,恩施土家族苗族自治州,32.16,23.14,32.83,30.54,35.75,34.75,34.43,43.45
778,778,2456A,112.5003,26.9167,原169医院(对照点),衡阳,54.9,54.49,57.67,52.21,56.56,53.38,55.27,56.24
779,779,2457A,112.6194,26.9258,衡阳化工总厂,衡阳,54.25,49.09,50.94,55.12,56.7,53.49,53.83,59.09
780,780,2458A,112.6211,26.8956,珠晖区环保局,衡阳,41.87,44.46,45.1,45.02,51.62,51.41,49.81,58.24
781,781,2459A,112.6197,26.8733,市委党校,衡阳,52.89,53.78,53.14,54.75,53.56,54.78,53.64,62.76
782,782,2460A,112.6006,26.8919,市监测站,衡阳,52.38,49.39,51.23,48.42,51.56,54.41,55.05,61.05
783,783,2461A,112.5664,26.9056,真空机电公司,衡阳,47.82,46.14,53.35,55.8,54.68,52.01,52.93,60.14
784,784,2465A,111.4503,27.2537,市罐头厂,邵阳,47.34,55.0,53.13,53.69,57.69,50.25,52.45,62.13
785,785,2466A,111.4328,27.2272,市环保局,邵阳,55.98,54.7,58.16,56.57,61.76,53.77,52.29,64.45
786,786,2468A,112.3458,28.5808,市环保局,益阳,62.39,66.0,66.36,65.72,62.97,56.39,59.01,68.48
787,787,2469A,112.3437,28.5531,市特殊教育学校,益阳,68.93,73.54,69.52,64.8,67.81,56.83,59.7,69.99
788,788,2470A,112.3347,28.6047,资阳区政务中心,益阳,63.15,60.4,60.92,59.41,61.94,54.49,55.94,66.5
789,789,2473A,113.0116,25.8226,市职中,郴州,45.17,46.36,56.0,53.86,50.29,47.82,46.58,54.96
790,790,2474A,113.0161,25.8001,兴隆步行街,郴州,47.72,49.44,62.48,50.48,50.66,51.63,47.47,55.93
791,791,2475A,113.0383,25.8071,市审计局,郴州,45.75,54.27,57.2,52.42,49.08,50.15,47.37,55.47
792,792,2477A,111.6217,26.2081,零陵南津渡(对照点),永州,57.6,57.95,63.26,63.71,59.42,54.31,57.81,66.67
793,793,2478A,111.6156,26.4214,市环境监测站,永州,59.11,58.36,57.7,59.72,61.51,58.32,59.04,65.86
794,794,2479A,111.6236,26.2331,零陵区环保局,永州,43.43,42.24,43.44,51.8,52.81,53.18,56.24,62.92
795,795,2480A,111.5992,26.4364,永州市环保局,永州,53.7,58.08,59.27,58.64,58.7,55.11,56.94,65.92
796,796,2481A,111.5989,26.4519,冷水滩区环保局,永州,57.21,59.46,54.47,58.65,58.74,54.35,53.3,63.42
797,797,2482A,109.5981,27.5721,林科所(对照点),怀化,57.96,62.99,62.1,62.84,57.32,56.54,57.91,67.12
798,798,2483A,109.9453,27.5444,河西地税局,怀化,54.53,54.58,60.5,55.25,53.39,48.66,50.02,58.18
799,799,2485A,109.9972,27.5578,监测楼,怀化,47.33,49.78,48.49,51.56,50.08,51.77,49.25,57.73
800,800,2486A,110.0394,27.583,市委党校,怀化,69.33,62.46,59.67,62.69,58.05,52.44,52.97,55.82
801,801,2489A,112.0194,27.7314,市委党校,娄底,59.48,69.08,59.46,56.25,55.35,53.57,53.03,58.93
802,802,2490A,111.9561,27.7569,涟钢,娄底,63.49,60.86,59.43,64.15,64.1,53.46,49.92,55.84
803,803,2491A,111.9892,27.7044,市政府,娄底,43.26,60.09,62.55,67.78,63.0,56.41,51.66,57.55
804,804,2494A,109.6958,28.2675,吉首市计生局,湘西州,37.72,49.6,39.17,34.84,36.75,36.97,42.49,50.27
805,805,2495A,111.3014,23.4832,市逸夫小学,梧州,53.07,55.45,47.88,45.76,43.56,46.64,44.95,49.22
806,806,2496A,111.3239,23.4794,市十一中,梧州,45.12,45.38,40.93,43.98,43.64,42.78,41.68,46.15
807,807,2497A,111.247,23.4189,龙圩,梧州,42.25,42.63,39.26,38.88,38.15,43.84,41.1,45.17
808,808,2498A,111.2711,23.4835,龙新,梧州,59.11,46.75,41.15,39.54,39.06,43.55,42.6,45.46
809,809,2499A,108.3411,21.6158,沙万,防城港,40.12,54.82,54.08,57.48,53.85,50.37,53.6,51.1
810,810,2500A,108.3514,21.7731,防城档案局,防城港,43.41,48.46,56.94,54.54,49.25,50.86,51.79,48.31
811,811,2501A,108.3506,21.6414,大海花园,防城港,45.87,45.66,64.94,61.12,56.8,54.35,58.29,56.28
812,812,2502A,108.6236,21.9667,市环保站,钦州,54.41,55.04,60.57,61.09,55.84,53.55,55.94,58.19
813,813,2503A,108.6549,21.9481,沙埠小学,钦州,57.15,54.81,57.24,55.31,53.14,53.72,57.27,54.06
814,814,2504A,108.5989,21.7431,港区一小,钦州,50.82,56.35,51.0,51.57,46.0,47.43,52.71,53.53
815,815,2506A,109.6047,23.0666,江南子站,贵港,53.8,48.38,54.32,50.83,49.93,49.28,54.96,55.99
816,816,2507A,109.6014,23.0948,贵城子站,贵港,49.31,49.08,57.21,56.02,52.27,52.6,56.47,57.04
817,817,2508A,109.5669,23.1065,荷城子站,贵港,54.98,62.16,56.25,55.71,49.19,52.04,56.87,57.49
818,818,2509A,110.1106,22.7019,寒山水库(对照点),玉林,64.03,55.07,51.47,55.17,52.61,50.79,59.04,53.19
819,819,2510A,110.1675,22.6411,市监测站,玉林,46.95,51.13,50.55,52.55,51.58,52.93,55.33,53.06
820,820,2511A,110.1433,22.6164,南江一中,玉林,52.91,46.92,49.13,58.44,51.16,53.69,53.23,50.67
821,821,2512A,106.6103,23.9011,市监测站,百色,43.85,41.24,47.22,45.48,45.78,47.28,49.1,49.91
822,822,2513A,106.6538,23.8859,市中心血站,百色,41.32,45.87,42.09,45.12,44.04,46.73,49.96,50.67
823,823,2514A,111.5264,24.4172,环保小区,贺州,46.26,45.32,51.59,51.16,45.69,51.61,53.65,55.14
824,824,2515A,111.5608,24.4078,政协大楼,贺州,35.96,45.11,57.12,53.28,48.65,50.87,52.82,55.51
825,825,2517A,108.0497,24.6947,市环保站,河池,35.85,43.28,44.64,40.95,42.19,44.71,43.46,46.71
826,826,2518A,108.0983,24.6989,市疾控中心,河池,52.33,47.69,39.4,38.67,39.31,39.7,41.34,43.44
827,827,2520A,109.2203,23.7256,来宾技工学校,来宾,45.89,48.68,55.49,52.57,54.16,52.42,52.68,54.54
828,828,2521A,107.3476,22.4136,市环保局江州分局,崇左,58.8,54.66,55.53,51.67,45.0,48.06,51.8,49.49
829,829,2522A,107.3702,22.3707,城南新区,崇左,54.13,50.89,49.86,50.21,46.6,49.25,51.66,48.9
830,830,2523A,105.8945,32.4535,黑石坡(对照点),广元,70.96,64.75,55.61,61.67,49.69,59.86,56.59,63.81
831,831,2524A,105.821,32.4444,老城,广元,51.46,45.6,37.52,41.45,34.15,45.57,39.38,44.91
832,832,2526A,105.8628,32.4287,监测站,广元,63.85,53.09,44.05,50.09,39.69,48.03,45.9,52.4
833,833,2528A,105.5582,30.5232,市监测站,遂宁,67.11,72.63,50.25,50.4,43.71,47.43,44.63,52.94
834,834,2529A,105.5861,30.5366,行政中心,遂宁,48.5,58.8,61.38,54.54,45.94,50.07,49.81,55.25
835,835,2530A,105.5918,30.4728,美宁食品公司,遂宁,63.16,66.66,47.85,49.36,45.15,46.17,45.3,51.23
836,836,2532A,105.0717,29.5947,东兴区政府,内江,57.02,63.65,58.87,57.78,51.29,57.48,54.26,62.71
837,837,2533A,105.0653,29.5817,内江二中,内江,60.6,56.89,53.23,56.66,53.36,55.86,55.77,63.09
838,838,2534A,105.0406,29.5822,内江日报社,内江,55.41,65.37,58.75,58.2,52.17,53.61,53.31,62.47
839,839,2535A,103.7723,29.5462,花湖湾(对照点),乐山,50.06,51.58,57.68,52.54,48.87,50.22,51.36,56.75
840,840,2536A,103.7627,29.5844,牛耳桥,乐山,41.27,45.24,49.96,46.1,43.67,46.28,46.49,51.28
841,841,2537A,103.7508,29.6006,市第三水厂,乐山,46.92,47.71,49.93,44.47,48.55,49.29,49.95,55.39
842,842,2538A,103.7571,29.5664,市监测站,乐山,45.66,51.68,51.87,41.4,42.71,50.32,51.35,55.85
843,843,2539A,104.0308,30.0478,黑龙滩水库(对照点),眉山,65.37,60.99,62.58,73.64,63.55,65.09,63.84,66.88
844,844,2540A,103.8416,30.0874,气象局,眉山,53.32,52.17,51.67,50.63,45.09,46.08,48.17,55.3
845,845,2544A,106.6303,30.4576,市委,广安,54.7,52.95,48.02,49.66,44.71,50.07,48.81,57.96
846,846,2545A,106.6271,30.4663,友谊中学,广安,67.26,57.81,50.29,48.7,48.32,52.46,49.56,56.4
847,847,2547A,106.6388,30.4551,广电花园,广安,59.46,49.81,47.31,50.52,46.05,48.95,45.12,53.61
848,848,2548A,107.5277,31.2827,达州职业技术学院(对照点),达州,39.11,46.38,50.36,63.6,48.95,45.64,35.67,34.37
849,849,2549A,107.5086,31.2186,市环境监测站,达州,35.35,47.27,56.11,58.0,45.84,46.62,31.8,34.06
850,850,2550A,107.4988,31.2132,凤凰小区,达州,30.76,37.87,39.27,55.66,46.07,40.87,35.11,37.62
851,851,2551A,107.5082,31.1986,达县机关宾馆,达州,35.99,42.33,51.42,67.41,45.01,49.89,36.45,32.43
852,852,2552A,107.4644,31.2124,市政中心,达州,41.06,43.59,58.6,65.28,47.55,44.06,33.96,36.16
853,853,2555A,103.0111,29.9833,市政府,雅安,38.16,85.14,67.35,55.52,47.39,46.92,46.42,53.72
854,854,2561A,104.6617,30.1372,莲花山(对照点),资阳,72.21,71.39,69.01,65.21,58.83,61.73,61.05,69.74
855,855,2562A,104.6356,30.1506,资阳中学,资阳,66.35,63.41,63.92,62.86,55.18,55.66,54.13,62.25
856,856,2563A,104.6295,30.1383,四三一厂,资阳,59.71,64.77,59.83,58.51,52.28,57.72,53.56,61.36
857,857,2564A,104.6463,30.1146,师范校,资阳,62.92,59.88,58.96,57.37,51.19,58.05,53.24,62.21
858,858,2565A,104.6296,30.1256,区法院,资阳,72.17,68.65,62.52,62.62,55.72,59.18,55.25,66.58
859,859,2568A,102.2502,31.8896,马师校,阿坝藏族羌族自治州,45.52,52.01,49.65,52.65,50.74,48.35,48.66,51.98
860,860,2573A,102.2625,27.898,西昌市政府,凉山彝族自治州,61.06,60.42,65.71,66.72,68.83,61.48,61.58,63.26
861,861,2574A,102.2685,27.8851,凉山州政府,凉山彝族自治州,70.85,62.98,66.0,68.21,68.82,59.56,62.0,60.81
862,862,2575A,102.237,27.8914,长安,凉山彝族自治州,67.55,58.44,57.81,60.9,62.54,57.91,58.83,59.87
863,863,2577A,104.83,26.5917,黄土坡,六盘水,50.98,49.61,59.8,63.65,57.86,58.53,60.04,62.24
864,864,2578A,104.89,26.5939,水钢,六盘水,42.37,44.26,65.15,59.37,54.42,57.66,57.71,64.25
865,865,2579A,104.8475,26.5894,民中,六盘水,42.38,61.19,60.19,63.49,64.06,61.85,61.36,60.73
866,866,2580A,104.9544,26.5506,双水,六盘水,34.93,48.82,56.5,61.65,57.91,58.09,60.58,64.39
867,867,2585A,109.1839,27.7344,铜仁卫校,铜仁地区,42.7,38.93,45.04,43.64,46.64,41.53,38.64,52.16
868,868,2586A,109.1753,27.6944,铜仁七中,铜仁地区,55.66,49.52,43.7,43.92,44.53,40.79,39.24,53.34
869,869,2587A,105.2864,27.3125,八中,毕节,40.75,40.35,52.28,54.64,53.97,54.92,57.37,64.73
870,870,2588A,105.31,27.2944,师专,毕节,58.52,55.47,54.32,57.35,54.76,55.37,56.27,63.19
871,871,2589A,104.9022,25.0925,场坝街,黔西南布依族苗族自治州,60.56,41.06,35.99,43.11,48.06,49.08,54.27,54.66
872,872,2590A,104.8811,25.0992,坪东大道,黔西南布依族苗族自治州,37.87,52.76,42.23,47.35,52.59,49.45,50.33,49.75
873,873,2591A,107.9783,26.5747,市环境监测站,黔东南苗族侗族自治州,43.69,43.56,36.7,48.51,44.01,48.09,44.88,52.65
874,874,2593A,107.5228,26.2403,小围寨,黔南布依族苗族自治州,50.24,48.09,49.25,53.33,46.11,49.48,49.4,54.51
875,875,2595A,99.1711,25.1328,市环保局,保山,57.74,59.92,59.55,61.82,62.65,58.49,61.8,57.21
876,876,2596A,103.7667,27.3736,监测站,昭通,56.12,67.67,71.91,68.9,68.33,61.71,66.42,70.22
877,877,2597A,103.7225,27.3361,环保局,昭通,95.32,80.59,71.03,67.28,69.63,58.27,63.01,69.01
878,878,2599A,100.2497,26.8802,丽江古城,丽江,55.53,48.69,74.11,74.6,70.13,66.67,73.11,71.62
879,879,2602A,100.9817,22.8322,普洱第二中学,普洱,47.8,48.14,42.58,44.45,48.83,47.04,42.82,40.13
880,880,2603A,100.0781,23.8982,市环保局,临沧,30.17,35.01,45.13,54.26,53.22,43.78,46.05,46.66
881,881,2604A,100.0894,23.8822,市气象局,临沧,61.55,51.91,46.51,48.55,50.8,46.18,47.33,47.8
882,882,2605A,101.5482,25.0441,州环境监测站,楚雄州,38.39,50.65,48.98,54.05,58.18,51.38,53.36,50.24
883,883,2606A,101.538,25.0492,市经济开发区,楚雄州,46.99,53.46,49.43,49.26,56.37,49.53,52.42,49.54
884,884,2608A,103.3772,23.3993,污水处理厂,红河州,76.03,70.4,60.73,67.76,67.06,56.81,63.95,63.1
885,885,2609A,103.3861,23.35,监测站,红河州,70.57,65.79,60.55,70.6,72.51,61.05,63.9,63.43
886,886,2610A,104.2533,23.3594,州水务局,文山州,58.97,59.0,55.72,55.91,53.0,55.15,60.34,57.43
887,887,2612A,100.7939,22.0019,景洪市江南,西双版纳州,29.83,19.32,35.22,33.97,36.05,35.29,33.82,36.59
888,888,2614A,100.1542,25.7054,大理市环境监测站,大理州,65.65,53.09,67.11,70.12,66.49,64.92,65.05,65.86
889,889,2615A,100.2171,25.5811,大理古城,大理州,58.2,45.39,70.65,72.94,71.88,64.5,68.11,62.97
890,890,2616A,98.5842,24.428,德宏州监测站,德宏州,48.47,40.74,42.0,45.26,41.58,31.04,40.37,40.42
891,891,2618A,98.8601,25.8567,州监测站,怒江州,55.4,42.48,42.51,48.52,45.03,39.93,48.7,43.34
892,892,2619A,98.8546,25.8417,泸水一中,怒江州,37.18,34.86,37.76,37.24,33.26,32.15,39.6,35.61
893,893,2621A,99.7056,27.8317,迪庆州站,迪庆州,32.92,32.02,55.33,66.71,67.85,63.97,70.36,70.15
894,894,2630A,80.1161,32.5,阿里监测站,阿里地区,44.54,27.43,82.8,79.99,76.52,87.96,93.82,96.36
895,895,2635A,107.0154,33.0706,市监测站,汉中,53.37,49.36,49.23,51.86,41.82,45.44,45.19,52.47
896,896,2636A,107.0089,33.1138,鑫源开发区,汉中,51.61,47.26,47.48,51.66,40.64,46.85,46.7,51.25
897,897,2637A,107.007,33.0323,南郑大河坎水厂,汉中,43.64,45.85,45.15,45.27,37.96,40.17,42.08,50.54
898,898,2640A,109.7289,38.2839,实验中学,榆林,61.04,58.09,64.08,66.71,60.11,63.73,61.23,59.87
899,899,2641A,109.7336,38.2478,环保监测大楼,榆林,72.46,67.17,69.52,68.23,64.03,63.84,63.98,62.99
900,900,2642A,109.0318,32.6537,香溪洞(对照点),安康,65.64,57.52,66.23,64.83,53.84,57.01,57.29,63.69
901,901,2643A,109.0281,32.6939,安康市监测站,安康,50.3,50.51,46.87,50.65,40.92,43.51,42.75,52.61
902,902,2644A,109.0072,32.6975,汉滨区检察院,安康,50.39,52.51,49.28,49.17,37.52,41.87,41.3,51.36
903,903,2645A,109.9154,33.8715,监测站,商洛,63.83,65.71,56.37,57.82,60.35,59.43,57.18,64.81
904,904,2647A,104.1724,36.5446,第三小学,白银,49.82,53.44,67.88,68.06,60.56,62.7,64.63,76.09
905,905,2648A,104.1465,36.5482,动力公司,白银,63.63,54.61,64.68,65.13,62.37,59.88,61.14,70.87
906,906,2650A,105.7205,34.5786,公园小学,天水,51.94,58.45,52.02,53.07,50.32,51.27,53.22,57.17
907,907,2651A,105.8945,34.5538,麦积国土局,天水,56.42,61.86,64.86,61.72,51.2,50.09,51.21,58.12
908,908,2652A,102.6201,37.9251,监测站,武威,60.58,59.89,62.07,70.5,65.67,64.01,61.57,65.56
909,909,2654A,100.4698,38.9524,润泉湖,张掖,73.5,66.32,75.17,68.44,69.62,65.61,64.15,65.41
910,910,2655A,100.4154,38.9422,区工会,张掖,76.24,73.68,76.58,74.41,73.12,68.37,64.34,70.36
911,911,2656A,106.6692,35.5461,聚贤嘉苑,平凉,46.42,60.44,52.06,61.76,54.35,55.24,56.68,63.17
912,912,2657A,106.7021,35.5307,博物馆,平凉,55.54,57.18,56.62,58.94,55.87,57.44,57.22,61.74
913,913,2658A,98.5061,39.7443,仓门街子站,酒泉,70.46,73.87,76.43,78.11,78.2,73.53,74.67,74.23
914,914,2659A,98.4989,39.7256,油田生活基地,酒泉,60.19,74.32,78.57,78.44,75.36,74.18,73.94,74.38
915,915,2661A,107.6325,35.7357,庆阳五中,庆阳,66.4,74.88,86.9,88.92,83.64,84.28,79.31,87.4
916,916,2662A,107.6364,35.7067,市环保局,庆阳,76.42,76.21,80.73,72.23,76.09,75.6,74.01,89.39
917,917,2663A,104.6241,35.5734,东关小学,定西,69.85,64.37,63.88,65.55,60.91,58.25,61.77,64.28
918,918,2664A,104.6194,35.5934,供电公司,定西,60.38,58.13,55.13,62.24,57.21,54.23,54.68,60.21
919,919,2667A,103.2069,35.5993,环保局,临夏回族自治州,58.9,67.35,61.22,57.12,54.28,56.71,53.4,62.36
920,920,2668A,103.2417,35.6057,建设大厦,临夏回族自治州,62.26,54.93,61.72,66.26,59.68,63.31,58.76,65.39
921,921,2669A,102.9099,34.9841,州政府,甘南州,68.17,74.51,66.71,70.19,63.2,62.4,60.55,64.66
922,922,2671A,100.9048,36.9639,海晏县西海镇,海北藏族自治州,90.41,94.64,83.23,84.66,91.05,85.24,82.2,86.75
923,923,2672A,102.0199,35.5102,同仁县隆务镇,黄南藏族自治州,72.62,74.67,70.75,71.71,73.69,74.04,78.07,70.4
924,924,2673A,100.6188,36.2866,共和县恰卜恰镇,海南藏族自治州,94.02,82.38,72.07,67.15,83.94,76.9,73.96,80.21
925,925,2674A,100.2561,34.4714,玛沁县大武镇,果洛藏族自治州,80.79,80.4,83.35,87.74,74.0,71.68,75.22,80.42
926,926,2676A,97.3731,37.3753,德令哈市,海西蒙古族藏族自治州,97.32,65.62,88.09,87.69,101.11,92.44,88.1,92.38
927,927,2677A,106.1532,37.9648,教育园区,吴忠,45.35,57.3,55.92,61.17,63.6,58.91,65.86,64.54
928,928,2680A,105.0025,37.4635,沙坡头消防站(对照点),中卫,57.12,77.42,77.69,76.71,67.98,70.0,67.96,74.9
929,929,2682A,105.1971,37.5002,环保局站,中卫,61.24,61.2,71.85,72.01,65.29,68.28,65.93,66.94
930,930,2683A,106.2319,36.1417,马园(对照点),固原,51.81,46.35,66.61,70.88,60.33,64.38,56.4,63.34
931,931,2684A,106.2792,36.0022,监测站,固原,57.09,49.17,67.28,72.2,68.77,65.81,67.82,67.47
932,932,2685A,106.2375,36.0211,新区,固原,56.68,64.29,65.15,72.74,63.04,62.98,65.44,67.95
933,933,2689A,93.4961,42.8328,哈密师范学校,哈密地区,31.33,35.8,63.68,49.49,59.99,61.91,60.87,64.87
934,934,2692A,87.2717,44.0297,新区政务中心,昌吉州,50.69,36.76,50.53,53.71,49.52,59.69,59.81,59.23
935,935,2693A,82.0485,44.8556,市党校,博尔塔拉蒙古自治州,31.41,64.48,69.46,62.66,68.23,63.26,63.23,66.3
936,936,2694A,82.0806,44.8969,市环保局,博尔塔拉蒙古自治州,25.3,52.88,60.21,51.73,60.27,56.01,56.57,58.66
937,937,2698A,76.0072,39.4467,巡警大队,喀什地区,69.64,60.66,70.61,74.05,63.18,60.44,60.56,63.64
938,938,2706A,82.9994,46.7432,东门外小游园,塔城地区,68.72,68.31,69.17,75.4,58.51,58.1,55.91,59.48
939,939,2709A,86.0497,44.2967,艾青诗歌馆,石河子,46.83,52.46,65.9,56.22,55.96,56.47,57.24,59.27
940,940,2711A,87.5475,44.1756,农水大厦,五家渠,42.04,47.52,42.43,50.41,49.25,49.99,50.18,48.78
