,Unnamed: 0,site_code,lon,lat,site_name,city,2015年,2016年,2017年,2018年,2019年,2020年,2021年,2022年
0,0,1001A,116.3621,39.8784,万寿西宫,北京,100.65,85.2,61.67,63.24,64.89,63.7,60.54,68.9
1,1,1002A,116.2202,40.2915,定陵(对照点),北京,107.88,88.86,78.25,77.14,76.03,73.83,68.15,79.46
2,2,1003A,116.4174,39.9289,东四,北京,95.35,81.97,63.7,70.12,71.67,71.07,64.9,75.16
3,3,1004A,116.4072,39.8863,天坛,北京,107.61,83.62,62.25,64.16,65.22,64.82,61.28,65.45
4,4,1005A,116.462,39.9365,农展馆,北京,105.87,86.03,68.49,69.07,69.71,67.6,61.86,70.01
5,5,1006A,116.3392,39.9295,官园,北京,99.26,80.21,67.06,69.67,70.49,70.34,61.71,70.55
6,6,1007A,116.2878,39.9611,海淀万柳,北京,93.95,80.44,59.66,67.65,65.03,63.92,57.2,64.96
7,7,1009A,116.6275,40.3275,怀柔镇,北京,99.59,77.33,78.94,73.74,72.4,72.64,66.52,75.88
8,8,1010A,116.2296,40.217,昌平镇,北京,93.6,75.9,64.16,74.3,72.45,69.58,66.56,73.45
9,9,1011A,116.3966,39.9821,奥体中心,北京,108.37,88.4,67.75,66.93,68.43,63.57,60.34,69.71
10,10,1012A,116.184,39.9136,古城,北京,105.17,86.43,65.1,69.51,65.63,64.1,59.94,71.41
11,11,1015A,117.1444,39.1661,勤俭道,天津,76.12,69.8,71.89,75.07,77.2,71.74,66.6,76.96
12,12,1017A,117.237,39.1082,大直沽八号路,天津,76.23,76.63,75.79,78.22,79.18,72.59,68.83,76.28
13,13,1018A,117.202,39.0927,前进道,天津,76.28,75.98,70.18,78.85,79.66,75.89,68.6,75.87
14,14,1021A,117.307,39.0877,跃进路,天津,74.88,68.41,66.24,72.37,75.65,70.48,65.69,72.89
15,15,1023A,117.707,39.0343,第四大街,天津,70.82,65.84,68.01,68.09,69.02,68.47,58.65,65.02
16,16,1024A,117.457,38.8394,永明路,天津,80.32,67.83,72.07,78.72,76.08,73.7,69.68,72.91
17,17,1026A,117.764,39.1587,汉北路,天津,82.79,70.96,74.46,73.43,68.96,67.73,65.2,70.24
18,18,1027A,117.157,38.9194,团泊洼(对照点),天津,90.17,88.94,65.4,69.13,72.32,67.24,67.41,76.28
19,19,1029A,114.4422,38.0444,职工医院,石家庄,71.73,71.98,62.1,74.68,67.73,65.01,69.3,71.44
20,20,1030A,114.6063,38.0266,高新区,石家庄,68.39,70.49,70.04,72.8,71.51,65.96,69.97,71.87
21,21,1031A,114.4898,38.1328,西北水源,石家庄,101.36,79.47,65.27,66.23,68.11,63.8,64.73,68.21
22,22,1032A,114.4586,38.0058,西南高教,石家庄,66.01,63.36,56.54,65.98,63.52,62.42,65.8,68.11
23,23,1033A,114.5331,38.0178,世纪公园,石家庄,82.92,75.94,61.79,70.3,67.06,69.73,69.67,71.66
24,24,1034A,114.509,38.0457,人民会堂,石家庄,92.49,68.6,59.43,72.29,74.84,71.3,77.05,79.3
25,25,1037A,118.131,39.6363,雷达站,唐山,97.59,85.11,66.19,70.97,67.45,66.63,66.51,74.43
26,26,1040A,118.1705,39.6506,十二中,唐山,97.83,83.94,68.83,65.53,67.22,64.32,66.0,70.73
27,27,1041A,118.1869,39.622,小山,唐山,99.54,84.2,68.56,71.32,65.71,68.13,62.3,72.42
28,28,1042A,119.5134,39.8207,北戴河环保局,秦皇岛,64.18,71.82,80.23,76.49,80.29,78.76,73.77,80.13
29,29,1043A,119.7493,40.0116,第一关,秦皇岛,79.3,80.35,62.28,59.34,60.37,66.16,64.27,66.74
30,30,1044A,119.5897,39.9499,监测站,秦皇岛,58.28,66.35,72.13,73.68,68.28,70.82,68.81,73.02
31,31,1046A,119.5251,39.9041,建设大厦,秦皇岛,70.53,69.14,67.35,67.41,66.86,69.57,68.87,75.29
32,32,1048A,114.5302,36.6116,东污水处理厂,邯郸,62.67,71.2,64.52,73.79,71.96,68.19,71.9,71.98
33,33,1049A,114.4918,36.5713,矿院,邯郸,106.45,79.65,65.25,79.19,76.51,71.79,70.77,72.37
34,34,1050A,114.484,36.6133,丛台公园,邯郸,76.77,74.4,65.0,80.05,75.62,72.39,72.87,76.28
35,35,1051A,115.493,38.8632,游泳馆,保定,108.87,85.6,78.6,81.79,75.0,68.01,69.32,74.2
36,36,1053A,115.4713,38.9108,接待中心,保定,89.65,78.64,75.8,79.95,74.71,66.88,69.14,74.28
37,37,1056A,115.5086,38.8639,监测站,保定,101.57,75.02,72.17,76.34,74.64,69.24,67.26,74.44
38,38,1057A,114.8883,40.8336,人民公园,张家口,104.35,96.81,86.42,88.16,81.79,77.31,76.52,83.83
39,39,1059A,114.8687,40.8042,五金库,张家口,96.27,92.06,89.63,88.88,80.97,80.23,77.83,84.94
40,40,1060A,114.8902,40.762,世纪豪园,张家口,94.64,93.59,91.73,87.04,80.94,80.93,80.82,84.98
41,41,1062A,117.9531,40.9081,铁路,承德,99.52,83.93,61.6,65.77,61.61,60.71,53.37,59.64
42,42,1063A,117.9392,40.9763,中国银行,承德,99.77,86.48,59.2,61.33,58.94,59.26,53.63,56.95
43,43,1064A,117.9503,40.928,开发区,承德,103.46,87.88,65.43,69.3,63.29,66.51,58.55,64.08
44,44,1067A,116.6708,39.5111,药材公司,廊坊,83.71,76.01,70.79,67.0,69.98,69.58,66.41,73.13
45,45,1070A,116.7244,39.5269,北华航天学院,廊坊,93.56,82.92,72.93,72.39,73.73,69.7,67.46,73.74
46,46,1071A,116.8842,38.2991,沧县城建局,沧州,85.19,84.82,74.62,82.57,75.61,78.86,72.18,75.96
47,47,1072A,116.8584,38.3254,电视转播站,沧州,111.05,90.49,81.14,82.83,78.13,77.19,74.09,81.09
48,48,1073A,116.8709,38.3228,市环保局,沧州,89.62,89.64,81.76,81.86,74.22,75.72,71.1,81.72
49,49,1074A,115.6838,37.7541,电机北厂,衡水,100.63,95.77,71.32,80.7,78.88,80.87,76.63,82.95
50,50,1075A,115.6303,37.7316,市监测站,衡水,110.64,95.26,76.6,81.12,77.09,76.28,73.37,78.57
51,51,1077A,114.4704,37.0886,达活泉,邢台,91.74,78.61,69.34,73.39,72.86,70.47,72.64,74.86
52,52,1079A,114.5237,37.0851,路桥公司,邢台,76.11,67.58,68.09,70.16,69.32,68.37,71.02,73.44
53,53,1081A,112.5139,37.8873,尖草坪,太原,71.39,60.79,60.97,64.16,62.27,66.55,70.21,68.27
54,54,1084A,112.469,37.7124,晋源,太原,67.3,63.26,59.19,68.22,66.48,63.49,69.11,66.36
55,55,1085A,112.5583,37.7394,小店,太原,74.3,58.76,66.61,71.3,70.06,69.66,72.07,68.94
56,56,1086A,112.5369,37.8692,桃园,太原,52.2,62.75,61.06,65.9,64.39,67.04,72.88,68.21
57,57,1087A,112.57,37.8195,坞城,太原,59.11,58.83,58.12,71.58,67.67,68.52,73.39,72.44
58,58,1088A,112.549,37.9854,南寨,太原,98.64,75.84,56.18,59.49,55.12,58.86,59.15,56.33
59,59,1091A,111.6572,40.8033,小召,呼和浩特,73.36,81.4,70.18,64.91,63.01,63.45,63.68,68.68
60,60,1094A,111.7516,40.8369,如意水处理厂,呼和浩特,93.73,78.55,68.31,65.45,59.88,62.07,62.91,66.14
61,61,1095A,111.7276,40.8062,二十九中,呼和浩特,100.98,79.46,73.71,69.87,65.21,65.58,67.75,67.21
62,62,1097A,111.717,40.7612,化肥厂生活区,呼和浩特,76.59,77.14,63.88,61.82,61.56,64.92,65.07,66.81
63,63,1099A,123.505,41.7406,浑南东路,沈阳,100.72,80.12,67.56,60.63,59.92,61.42,56.79,60.97
64,64,1100A,123.4231,41.6989,新秀街,沈阳,99.66,77.17,66.52,61.69,65.0,61.67,56.73,60.71
65,65,1102A,123.5903,41.8411,东陵路,沈阳,103.14,93.2,71.12,65.28,61.73,59.7,52.37,56.08
66,66,1103A,123.4264,41.8467,陵东街,沈阳,51.64,60.46,74.09,67.61,63.71,64.88,60.12,61.58
67,67,1104A,123.4114,41.7653,文化路,沈阳,95.38,83.29,66.08,63.14,64.49,67.84,63.64,65.52
68,68,1105A,123.4678,41.7867,小河沿,沈阳,92.57,74.22,66.85,62.82,59.42,60.19,56.57,60.36
69,69,1106A,123.4017,41.7972,太原街,沈阳,63.48,74.26,65.9,63.11,61.34,62.84,57.22,64.56
70,70,1108A,123.3783,41.9228,京沈街,沈阳,101.33,97.7,76.88,73.39,67.24,67.59,62.57,68.26
71,71,1109A,121.612,38.9741,甘井子,大连,100.59,97.02,86.31,82.83,75.72,80.57,77.77,78.49
72,72,1110A,121.565,38.9511,周水子,大连,102.28,89.5,83.13,79.97,74.82,69.69,74.88,75.91
73,73,1111A,121.5637,38.8845,星海三站,大连,86.08,97.43,97.79,86.24,82.96,82.4,83.08,85.02
74,74,1112A,121.6302,38.9117,青泥洼桥,大连,96.58,85.07,85.39,81.72,79.5,78.02,78.34,82.22
75,75,1113A,121.6251,38.8638,傅家庄,大连,113.1,98.48,91.89,83.28,85.11,86.4,87.2,84.33
76,76,1115A,121.2529,38.8061,旅顺,大连,99.02,106.11,99.67,90.79,93.67,87.5,84.62,89.1
77,77,1116A,121.7485,39.1311,金州,大连,99.99,97.42,93.62,85.1,81.36,83.58,79.62,79.42
78,78,1117A,121.7811,39.0496,开发区,大连,101.32,92.53,85.75,85.82,82.14,78.76,79.61,78.17
79,79,1119A,125.3325,43.9166,食品厂,长春,88.24,75.95,61.57,61.86,58.41,56.65,53.24,59.55
80,80,1120A,125.2863,43.9027,客车厂,长春,93.02,76.21,63.83,62.48,60.67,60.77,56.77,62.52
81,81,1123A,125.3297,43.8805,园林处,长春,87.35,75.77,64.62,58.25,60.33,58.06,55.82,64.5
82,82,1126A,125.3863,43.8447,经开区环卫处,长春,94.22,75.77,66.09,60.48,62.37,58.89,55.86,59.51
83,83,1127A,125.245,43.7783,高新区管委会,长春,102.69,84.71,71.25,65.01,63.18,60.21,56.96,62.22
84,84,1128A,125.1761,43.8325,岱山公园,长春,108.39,88.75,70.01,65.16,62.18,60.16,55.49,61.52
85,85,1129A,126.5422,45.755,岭北(对照点),哈尔滨,71.38,47.29,73.9,74.85,64.91,71.61,71.04,67.8
86,86,1130A,126.561,45.8167,松北商大,哈尔滨,69.68,63.2,73.98,61.29,53.81,56.46,63.98,62.09
87,87,1131A,126.979,45.5419,阿城会宁,哈尔滨,63.29,73.82,77.19,65.09,56.42,62.19,62.72,58.11
88,88,1133A,126.689,45.7733,太平宏伟公园,哈尔滨,61.95,52.02,78.46,72.3,58.11,66.63,66.3,61.9
89,89,1134A,126.635,45.7667,道外承德广场,哈尔滨,51.58,40.6,56.73,58.9,56.03,59.4,64.09,61.6
90,90,1137A,126.593,45.7478,道里建国路,哈尔滨,70.27,59.52,60.5,56.05,53.06,59.7,60.86,60.17
91,91,1138A,126.615,45.61,平房东轻厂,哈尔滨,70.85,66.23,74.18,71.43,63.89,67.51,62.67,56.82
92,92,1142A,121.478,31.2036,十五厂,上海,107.25,83.44,80.44,78.9,77.1,76.89,71.5,80.88
93,93,1143A,121.467,31.3008,虹口,上海,98.29,85.05,85.56,76.83,73.8,71.71,65.92,77.55
94,94,1144A,121.412,31.1654,徐汇上师大,上海,105.49,92.96,84.68,76.58,76.48,73.38,68.29,81.76
95,95,1145A,121.536,31.2659,杨浦四漂,上海,114.99,110.26,87.38,83.92,77.45,75.11,70.44,83.59
96,96,1147A,121.425,31.2261,静安监测站,上海,108.0,93.76,89.52,81.94,81.27,79.43,73.13,80.55
97,97,1148A,121.703,31.1907,浦东川沙,上海,106.69,92.99,89.02,82.76,82.12,80.04,71.07,80.28
98,98,1149A,121.533,31.2284,浦东新区监测站,上海,115.08,102.38,92.06,83.92,75.56,71.97,72.03,84.09
99,99,1150A,121.577,31.2071,浦东张江,上海,108.2,91.55,87.11,77.57,75.41,74.39,66.43,76.34
100,100,1151A,118.8086,32.1065,迈皋桥,南京,89.27,77.83,69.43,71.98,71.42,67.46,68.49,74.83
101,101,1152A,118.7538,32.0551,草场门,南京,106.44,82.73,84.6,68.61,71.69,75.43,70.59,78.65
102,102,1153A,118.7794,32.0745,山西路,南京,117.15,103.22,82.46,80.69,74.03,72.31,75.36,84.35
103,103,1154A,118.7752,32.0023,中华门,南京,105.08,96.31,76.73,72.41,70.56,71.75,69.56,79.53
104,104,1155A,118.8109,32.0309,瑞金路,南京,90.1,93.69,69.46,71.11,73.97,74.12,71.77,79.41
105,105,1156A,118.7997,32.0754,玄武湖,南京,97.19,98.21,75.23,73.62,73.58,72.17,69.52,80.63
106,106,1158A,118.7356,31.9996,奥体中心,南京,97.78,94.48,66.75,80.67,75.01,77.41,72.03,81.43
107,107,1159A,118.9125,32.1028,仙林大学城,南京,108.38,89.98,73.32,74.71,72.61,74.76,75.11,83.18
108,108,1160A,120.561,31.2472,上方山(对照点),苏州,95.51,82.66,78.93,68.29,70.04,74.78,73.18,75.16
109,109,1163A,120.596,31.3264,轧钢厂,苏州,87.99,77.24,72.11,64.29,66.53,70.42,67.51,78.29
110,110,1164A,120.613,31.2703,吴中区,苏州,104.89,88.7,80.77,71.45,74.57,74.96,68.96,80.47
111,111,1166A,120.669,31.3097,苏州工业园区,苏州,105.66,94.62,79.92,70.68,67.56,72.71,70.97,78.02
112,112,1168A,120.9098,31.9663,狼山街道,南通,113.22,92.84,83.15,71.2,75.76,74.2,71.54,86.91
113,113,1169A,120.86,32.0005,虹桥,南通,114.76,95.58,88.01,74.38,76.45,75.42,69.61,83.8
114,114,1170A,120.87,32.02,城中,南通,107.3,91.81,81.37,77.97,73.83,73.53,75.81,84.16
115,115,1171A,120.94,31.93,星湖花园,南通,101.73,90.91,79.99,69.27,70.71,71.1,68.15,84.83
116,116,1172A,120.81,32.0417,紫琅学院,南通,109.75,97.76,92.61,84.64,77.08,71.07,67.77,83.74
117,117,1173A,119.176,34.5885,市环境监测站,连云港,102.98,96.24,76.75,81.56,83.15,78.78,77.18,85.04
118,118,1177A,117.179,34.2761,黄河新村,徐州,100.58,88.4,80.58,74.23,75.63,72.09,70.64,85.14
119,119,1178A,117.1918,34.2384,淮塔,徐州,108.77,89.12,76.8,77.67,76.9,72.84,69.27,84.0
120,120,1180A,117.256,34.2153,新城区,徐州,86.43,68.32,82.83,76.36,73.81,67.15,67.78,79.8
121,121,1181A,117.244,34.2911,桃园路,徐州,98.89,72.53,74.67,79.9,72.65,77.63,69.97,82.05
122,122,1182A,117.2933,34.2778,农科院,徐州,88.72,81.75,73.67,73.98,67.72,69.76,64.02,74.9
123,123,1188A,120.269,31.4867,雪浪,无锡,102.29,89.97,76.07,68.51,76.12,78.37,74.21,81.61
124,124,1191A,120.242,31.5031,漆塘,无锡,116.17,101.09,85.98,72.42,76.58,77.16,73.94,84.17
125,125,1193A,120.354,31.5475,旺庄,无锡,103.23,91.87,73.72,68.16,71.59,72.14,73.27,79.01
126,126,1195A,120.299,31.6817,堰桥,无锡,88.74,76.18,65.24,71.02,71.68,72.05,68.44,80.51
127,127,1196A,119.9633,31.762,市监测站,常州,89.58,82.69,75.75,77.36,69.53,73.06,71.97,79.29
128,128,1200A,119.9468,31.7069,武进监测站,常州,98.48,89.8,72.95,78.63,78.34,77.13,75.98,86.5
129,129,1201A,119.9255,31.9087,安家,常州,100.51,77.75,71.35,74.59,76.26,74.23,73.29,82.64
130,130,1203A,119.6707,32.1875,新区办事处,镇江,109.53,72.93,70.19,68.57,69.86,66.52,68.59,81.83
131,131,1204A,119.4974,32.1968,职教中心,镇江,111.54,87.66,86.04,80.51,73.13,73.16,69.64,83.58
132,132,1205A,119.4303,32.1328,丹徒区监测站,镇江,100.22,85.03,67.65,67.12,79.13,73.47,73.09,86.84
133,133,1206A,119.905,32.4878,公园路,泰州,108.61,81.6,76.01,77.81,77.99,73.96,71.02,78.32
134,134,1207A,119.9189,32.4625,莲花,泰州,101.63,91.2,81.97,79.3,77.2,75.13,71.97,83.02
135,135,1209A,119.888,32.4639,留学生创业园,泰州,90.66,100.11,84.96,76.47,81.19,78.3,71.12,85.14
136,136,1210A,119.036,33.5981,钵池山,淮安,128.98,108.68,86.78,80.94,72.13,73.84,76.45,83.3
137,137,1211A,119.007,33.575,北京南路,淮安,96.2,84.91,83.22,80.05,77.57,75.97,76.33,81.79
138,138,1212A,118.989,33.6067,市监测站,淮安,114.72,84.41,75.95,82.56,74.93,74.66,78.33,85.88
139,139,1213A,119.135,33.5039,楚州区监测站,淮安,105.96,93.0,75.49,75.99,74.41,72.74,72.41,77.45
140,140,1214A,119.0186,33.6297,淮阴区监测站,淮安,91.65,82.0,78.67,78.84,84.26,78.13,74.98,81.39
141,141,1215A,120.118,33.4022,盐城电厂,盐城,113.05,91.09,90.82,92.44,84.48,81.96,82.32,92.87
142,142,1216A,120.156,33.3942,市监测站,盐城,109.44,88.76,88.03,78.77,78.1,82.88,84.29,90.32
143,143,1218A,120.2144,33.38,开发区管委会,盐城,116.82,96.72,76.83,80.8,82.13,80.91,80.5,87.05
144,144,1220A,118.293,33.9528,宿迁学院,宿迁,103.64,88.08,86.55,80.96,80.89,79.17,75.11,83.56
145,145,1223A,120.2072,30.2111,滨江,杭州,106.23,85.21,67.16,63.41,64.16,60.08,61.15,72.41
146,146,1224A,120.0633,30.2747,西溪,杭州,95.94,80.74,59.78,63.85,66.52,58.36,57.69,61.37
147,147,1226A,120.3461,30.3153,下沙,杭州,105.06,90.37,70.62,66.46,65.44,59.12,64.53,74.21
148,148,1227A,120.1269,30.2456,卧龙桥,杭州,92.75,72.67,61.53,58.44,54.78,54.51,55.46,62.61
149,149,1228A,120.1903,30.2692,浙江农大,杭州,80.91,78.64,67.39,66.77,65.66,61.54,61.26,72.76
150,150,1232A,120.2697,30.1819,城厢镇,杭州,90.64,84.74,61.68,67.59,63.56,59.67,61.85,70.89
151,151,1233A,120.0883,30.1808,云栖,杭州,93.96,71.26,60.37,58.98,61.26,55.27,54.64,63.52
152,152,1234A,121.8358,29.911,区环保大楼,宁波,101.54,83.62,68.81,68.95,69.96,69.89,61.74,70.5
153,153,1235A,121.56,29.82,万里学院,宁波,107.63,82.99,76.79,63.95,71.32,75.4,68.1,79.75
154,154,1236A,121.713,29.9572,龙赛医院,宁波,106.78,89.51,77.96,68.08,71.78,71.16,65.1,79.1
155,155,1239A,121.633,29.7733,钱湖水厂,宁波,115.47,95.78,84.41,76.85,75.98,73.76,69.67,77.57
156,156,1240A,121.5856,29.8635,太古小学,宁波,100.11,87.56,76.51,70.7,71.52,71.56,63.85,73.87
157,157,1241A,121.524,29.8674,市环境监测中心,宁波,79.11,72.64,63.77,61.71,68.93,70.87,65.49,73.65
158,158,1242A,120.634,28.0089,瓯海,温州,89.1,68.45,63.03,57.02,54.11,60.55,55.47,64.36
159,159,1243A,120.6748,27.9939,南浦,温州,88.54,76.83,67.55,65.05,61.15,67.94,59.76,69.03
160,160,1244A,120.76,27.9747,龙湾,温州,86.62,72.27,57.53,54.95,53.29,59.72,52.14,61.7
161,161,1245A,120.6709,28.0167,市站,温州,90.45,77.12,70.71,62.32,59.16,65.66,56.45,68.52
162,162,1247A,120.6053,29.9928,城东开发委,绍兴,78.15,77.11,72.74,68.31,67.32,66.21,62.93,70.6
163,163,1250A,120.0751,30.8669,城西水厂,湖州,106.35,92.7,70.07,63.99,66.25,64.92,62.72,73.59
164,164,1252A,120.7436,30.778,清河小学,嘉兴,107.43,90.29,81.87,79.01,74.06,72.64,69.02,77.15
165,165,1253A,120.726,30.7478,嘉兴学院,嘉兴,112.36,92.65,80.17,70.73,66.5,71.33,70.74,79.1
166,166,1255A,121.273,28.6459,黄岩环保大楼,台州,98.04,87.58,73.41,69.52,74.7,74.55,66.29,71.61
167,167,1256A,121.419,28.6542,台州环保大楼,台州,97.53,82.96,75.63,70.28,72.93,76.88,69.54,75.77
168,168,1257A,121.377,28.5773,路桥田洋王,台州,98.89,84.37,70.29,72.22,71.61,74.54,65.44,73.5
169,169,1258A,122.122,30.0203,定海檀枫,舟山,106.99,87.12,86.5,71.23,68.65,78.53,71.66,76.84
170,170,1259A,122.3094,29.9558,普陀东港,舟山,108.02,95.96,93.59,81.48,83.2,81.11,79.57,83.4
171,171,1260A,122.19,29.9944,临城新区,舟山,96.5,88.06,84.14,70.97,79.72,82.85,74.33,77.98
172,172,1262A,119.647,29.077,十五中,金华,98.14,74.07,69.19,66.63,67.47,64.3,59.75,67.68
173,173,1263A,119.686,29.1029,监测站,金华,94.34,75.93,68.54,68.29,63.4,63.0,55.05,66.33
174,174,1264A,118.8692,28.9398,环保大楼,衢州,92.5,75.66,64.6,60.48,61.36,58.44,58.21,63.96
175,175,1265A,118.8709,28.9666,实验学校,衢州,106.41,77.95,61.63,64.82,66.38,69.57,61.26,66.73
176,176,1266A,118.8621,28.9808,衢州学院,衢州,93.66,78.02,63.77,67.9,63.47,58.19,57.57,65.44
177,177,1267A,119.914,28.4514,监测站大楼,丽水,79.05,71.66,68.54,63.29,59.9,58.21,54.79,60.65
178,178,1269A,119.879,28.4231,余庄前,丽水,92.54,63.06,58.87,58.62,53.44,59.12,49.15,54.96
179,179,1270A,117.1959,31.7848,明珠广场,合肥,102.54,78.22,67.24,73.23,65.22,64.29,65.27,74.13
180,180,1271A,117.3072,31.8764,三里街,合肥,95.9,72.78,60.82,61.21,66.1,55.72,56.27,69.85
181,181,1272A,117.2588,31.8707,琥珀山庄,合肥,78.93,73.58,66.38,72.39,73.22,67.77,64.29,74.09
182,182,1273A,117.1604,31.9052,董铺水库(对照点),合肥,92.83,89.31,86.12,82.39,80.03,71.49,68.89,70.53
183,183,1274A,117.25,31.8571,长江中路,合肥,73.66,82.49,70.29,75.86,75.46,69.58,67.26,80.16
184,184,1275A,117.266,31.9436,庐阳区,合肥,43.87,82.77,80.02,72.32,69.72,59.0,63.51,74.04
185,185,1276A,117.336,31.8586,瑶海区,合肥,79.09,87.06,69.72,70.76,68.92,64.65,60.68,73.38
186,186,1277A,117.3027,31.7964,包河区,合肥,52.56,71.99,68.25,70.0,61.6,55.02,55.45,70.04
187,187,1279A,117.1318,31.8403,高新区,合肥,39.91,85.44,85.68,83.24,82.32,71.57,69.12,79.45
188,188,1282A,119.2681,26.0504,师大,福州,82.49,74.21,78.33,72.78,72.45,70.66,60.24,74.98
189,189,1284A,119.2648,26.0768,杨桥西路,福州,81.15,69.7,78.66,74.47,60.55,61.32,63.88,71.23
190,190,1285A,119.317,26.0746,紫阳,福州,75.98,62.74,64.42,68.98,63.67,66.23,58.02,74.39
191,191,1287A,118.1514,24.4767,洪文,厦门,65.07,52.78,63.84,67.38,73.71,73.74,71.95,70.28
192,192,1290A,115.8931,28.6843,省外办,南昌,75.23,62.83,55.29,60.26,62.79,62.56,57.64,70.22
193,193,1291A,115.8886,28.7003,省林业公司,南昌,79.62,76.64,60.06,59.38,62.26,67.07,58.61,68.11
194,194,1292A,115.8126,28.7442,林科所,南昌,87.29,93.05,70.36,69.3,77.37,75.04,67.03,76.92
195,195,1294A,115.8518,28.687,建工学校,南昌,73.13,77.53,65.73,65.19,70.5,67.16,61.0,70.83
196,196,1295A,115.8921,28.6424,象湖,南昌,71.54,69.45,64.58,66.97,65.42,63.53,56.79,67.04
197,197,1296A,115.7423,28.7996,武术学校(对照点),南昌,60.0,83.61,68.74,65.74,62.62,58.71,52.82,59.88
198,198,1298A,115.9314,28.6842,省站,南昌,85.58,82.57,66.28,62.74,64.6,64.78,62.19,69.19
199,199,1300A,116.9376,36.665,农科所,济南,107.42,86.92,73.28,80.63,73.31,74.01,73.46,76.11
200,200,1303A,117.0624,36.6868,省种子仓库,济南,91.07,97.53,79.42,85.94,81.18,81.22,77.94,81.88
201,201,1310A,120.4134,36.0658,市南区东部子站,青岛,102.95,72.05,85.48,82.9,84.37,82.4,79.94,85.4
202,202,1311A,120.3664,36.1032,四方区子站,青岛,104.33,90.84,91.59,86.2,81.9,78.13,78.07,79.96
203,203,1312A,120.2994,36.054,市南区西部子站,青岛,99.36,106.68,93.74,86.2,85.63,89.17,88.99,90.59
204,204,1313A,120.4581,36.0858,崂山区子站,青岛,108.48,81.91,83.81,88.99,86.76,82.63,83.4,90.6
205,205,1314A,120.1983,35.9608,黄岛区子站,青岛,83.31,83.39,88.16,81.72,86.61,83.68,79.01,89.27
206,206,1315A,120.3999,36.3083,城阳区子站,青岛,97.32,97.09,93.53,79.99,75.07,71.02,71.7,79.31
207,207,1316A,113.69031,34.76122,烟厂,郑州,100.66,100.13,75.72,78.42,78.71,78.59,76.95,83.1
208,208,1317A,113.65724,34.77134,郑纺机,郑州,78.32,76.7,77.45,80.39,77.51,78.32,78.59,82.16
209,209,1318A,113.67526,34.80246,银行学校,郑州,93.21,98.73,72.14,76.42,80.07,76.57,78.92,84.42
210,210,1321A,113.73961,34.77172,四十七中,郑州,96.86,90.64,74.61,75.67,72.56,75.93,76.49,82.97
211,211,1325A,114.3677,30.5584,东湖梨园,武汉,102.56,83.07,59.52,66.85,72.41,66.13,68.66,75.78
212,212,1326A,114.2529,30.558,汉阳月湖,武汉,96.61,74.42,55.02,63.38,63.83,63.5,66.57,72.84
213,213,1327A,114.282,30.6189,汉口花桥,武汉,93.02,70.44,54.48,67.23,68.71,69.24,65.79,74.67
214,214,1328A,114.3025,30.5332,武昌紫阳,武汉,96.01,71.91,54.45,62.15,65.12,66.22,65.08,70.78
215,215,1329A,114.3646,30.6217,青山钢花,武汉,97.56,78.52,54.42,63.6,66.73,62.71,62.08,73.19
216,216,1335A,113.0833,28.2325,经开区环保局,长沙,80.4,68.36,61.16,66.78,65.61,61.16,61.71,67.24
217,217,1336A,112.8872,28.2189,高开区环保局,长沙,97.04,73.97,64.85,72.18,66.67,64.94,60.96,69.65
218,218,1337A,113.0792,28.2053,马坡岭,长沙,63.41,75.14,54.13,62.65,66.11,60.52,60.1,65.57
219,219,1338A,112.9394,28.19,湖南师范大学,长沙,81.19,73.44,64.13,70.39,69.89,63.32,63.93,68.46
220,220,1339A,113.0178,28.1322,雨花区环保局,长沙,86.97,71.26,62.77,70.55,67.95,62.53,59.98,67.88
221,221,1340A,112.9792,28.2597,伍家岭,长沙,77.35,66.35,52.22,62.75,62.3,56.68,58.58,63.93
222,222,1341A,113.0014,28.1944,火车新站,长沙,69.14,71.02,55.79,66.79,63.21,60.95,57.42,64.54
223,223,1342A,112.9844,28.1178,天心区环保局,长沙,81.31,72.65,67.37,72.9,66.64,63.15,61.24,65.56
224,224,1343A,112.8908,28.1308,湖南中医药大学,长沙,92.94,74.9,57.63,66.2,61.49,56.24,53.6,61.12
225,225,1344A,112.9581,28.3611,沙坪(对照点),长沙,89.96,77.29,65.83,75.18,77.43,66.37,66.5,68.05
226,226,1345A,113.2347,23.1423,广雅中学,广州,74.23,56.15,47.74,51.95,54.33,54.26,62.92,59.61
227,227,1346A,113.2612,23.105,市五中,广州,80.96,61.14,53.94,56.58,62.34,59.86,64.7,67.9
228,228,1348A,113.3478,23.0916,广东商学院,广州,79.77,65.81,54.7,56.56,58.56,60.57,59.55,60.81
229,229,1349A,113.4332,23.1047,市八十六中,广州,85.97,63.96,52.53,54.92,55.7,55.96,56.8,57.52
230,230,1350A,113.3505,22.9483,番禺中学,广州,101.86,77.24,58.61,66.01,64.95,61.84,70.46,66.07
231,231,1351A,113.2146,23.3916,花都师范,广州,103.52,72.88,62.69,64.44,62.32,65.82,66.64,66.47
232,232,1352A,113.2597,23.1331,市监测站,广州,76.87,54.16,50.58,51.95,63.38,61.96,66.52,66.22
233,233,1353A,113.5618,23.312,九龙镇镇龙,广州,86.07,72.71,56.15,55.42,56.8,54.13,54.13,54.5
234,234,1354A,113.2765,23.1544,麓湖,广州,80.55,58.65,51.93,52.79,53.49,54.25,57.82,61.04
235,235,1356A,114.1063,22.5545,通心岭子站,深圳,77.12,71.67,70.25,71.05,75.82,65.95,62.8,67.54
236,236,1357A,114.117,22.5625,洪湖,深圳,80.41,74.31,66.74,67.04,77.11,58.99,61.43,69.71
237,237,1358A,113.987,22.5417,华侨城,深圳,56.6,63.06,77.87,67.7,72.59,59.72,56.32,65.45
238,238,1359A,113.9181,22.5171,南海子站,深圳,83.25,70.53,61.43,63.99,70.76,56.85,60.35,68.38
239,239,1360A,114.2458,22.5689,盐田,深圳,79.2,73.59,62.76,64.66,77.89,57.99,63.72,66.42
240,240,1361A,114.2283,22.7244,龙岗,深圳,77.91,75.12,74.12,70.7,64.35,58.73,66.79,71.2
241,241,1363A,114.494,22.5422,南澳,深圳,81.22,78.55,71.64,61.12,64.96,67.71,65.59,73.79
242,242,1364A,114.41,22.6342,葵涌,深圳,91.72,88.1,77.17,81.89,76.92,64.97,64.89,68.29
243,243,1365A,114.297,22.5978,梅沙,深圳,86.01,79.49,72.1,69.43,79.0,68.71,71.07,76.69
244,244,1366A,114.0678,22.738,观澜,深圳,102.0,77.49,66.13,65.72,66.08,54.31,63.61,59.72
245,245,1367A,113.5814,22.2618,吉大,珠海,82.32,88.19,73.75,77.21,80.58,67.63,66.02,70.78
246,246,1368A,113.4881,22.2335,前山,珠海,99.4,72.44,63.14,71.14,66.74,61.73,67.75,68.36
247,247,1369A,113.628,22.4251,唐家,珠海,59.98,61.96,68.79,72.4,75.61,66.33,68.15,72.68
248,248,1370A,113.299,22.2281,斗门,珠海,87.49,79.64,56.46,67.9,63.91,61.07,65.58,68.28
249,249,1371A,113.1294,23.0067,湾梁,佛山,75.19,67.99,55.59,58.81,59.49,55.67,63.14,66.35
250,250,1372A,113.1083,23.0478,华材职中,佛山,88.53,70.83,56.61,58.64,60.25,56.16,63.92,63.84
251,251,1373A,113.144,23.0453,南海气象局,佛山,90.16,69.75,59.67,59.25,59.41,58.31,62.84,61.65
252,252,1374A,113.2881,22.8094,顺德苏岗,佛山,96.54,71.25,61.5,61.28,62.71,55.78,60.14,62.63
253,253,1376A,112.8383,22.8678,高明孔堂,佛山,86.08,73.05,61.68,63.93,71.44,65.46,67.63,66.97
254,254,1377A,112.8836,23.1588,三水监测站,佛山,82.81,65.16,57.08,54.93,52.61,53.02,57.0,54.93
255,255,1378A,112.867,23.185,三水云东海,佛山,80.15,73.99,57.82,54.35,56.03,53.46,59.51,57.79
256,256,1379A,113.3769,22.5211,华柏园,中山,62.7,59.6,57.49,56.37,65.61,59.23,63.19,65.27
257,257,1380A,113.3881,22.5497,张溪,中山,76.14,64.15,64.73,64.01,65.86,59.65,63.1,67.57
258,258,1381A,113.4075,22.5111,紫马岭,中山,81.45,68.21,67.96,65.94,69.91,61.2,64.39,65.22
259,259,1383A,113.1064,22.6058,北街,江门,64.34,64.16,60.91,61.55,65.85,61.54,65.79,67.98
260,260,1384A,113.0731,22.5835,西区,江门,87.47,68.45,61.2,64.87,67.22,63.47,66.56,66.65
261,261,1385A,113.0219,22.5311,圭峰西,江门,73.01,65.43,63.8,62.1,70.44,62.75,70.44,69.22
262,262,1386A,113.0828,22.5947,东湖,江门,71.15,58.51,59.86,66.69,67.11,61.35,66.43,68.8
263,263,1390A,113.7944,23.0128,东城石井,东莞,108.27,78.46,64.15,67.75,70.17,63.75,68.49,71.2
264,264,1391A,113.7383,22.9658,南城西平,东莞,107.39,74.57,62.22,62.5,66.15,63.45,65.33,68.29
265,265,1393A,114.4053,23.0822,下埔横江三路子站,惠州,91.87,72.13,68.48,70.38,69.55,66.08,67.93,71.05
266,266,1396A,114.5317,22.7422,大亚湾管委会子站,惠州,89.1,71.38,65.9,71.21,74.82,68.12,73.93,71.2
267,267,1397A,112.4267,23.0706,睦岗子站,肇庆,82.37,68.78,58.52,56.49,55.54,51.46,55.28,62.63
268,268,1398A,112.4645,23.0475,城中子站,肇庆,95.82,72.16,54.44,60.12,60.61,53.86,60.24,64.28
269,269,1399A,112.5544,23.1522,坑口子站,肇庆,89.64,68.31,57.8,59.4,63.2,54.45,64.37,70.13
270,270,1401A,108.3103,22.7881,二十一中,南宁,73.81,63.55,49.03,49.12,48.75,57.7,62.3,60.08
271,271,1403A,108.3206,22.8225,市监测站,南宁,65.35,40.86,48.02,57.76,52.62,55.15,61.0,59.19
272,272,1404A,108.3829,22.8037,大自然花园,南宁,78.31,59.64,56.93,56.78,60.4,62.52,62.83,62.3
273,273,1405A,108.4394,22.7904,仙葫(对照点),南宁,83.72,68.59,51.76,55.4,52.0,54.46,58.23,58.12
274,274,1406A,108.2397,22.8467,区农职院,南宁,86.6,69.95,55.31,54.54,51.66,55.88,56.97,58.04
275,275,1407A,108.3275,22.735,英华嘉园,南宁,84.69,61.5,42.73,49.6,45.22,49.35,53.21,51.7
276,276,1408A,108.2257,22.7757,沙井镇街道办,南宁,78.03,62.75,44.3,46.45,42.14,45.93,47.82,47.56
277,277,1412A,110.338,19.9969,海南师范大学,海口,73.98,70.32,64.72,56.7,70.38,67.17,66.3,64.09
278,278,1413A,110.33,20.0356,龙华路环保局宿舍,海口,62.29,66.05,61.91,60.98,72.13,68.82,68.68,70.64
279,279,1414A,106.3787,29.8279,缙云山(对照点),重庆,100.49,105.09,88.34,86.2,85.12,82.76,83.87,88.87
280,280,1416A,106.4213,29.8253,天生,重庆,67.56,62.09,37.36,42.12,43.56,42.78,40.56,51.95
281,281,1417A,106.6263,29.7228,两路,重庆,57.69,52.85,46.27,51.13,47.85,42.62,42.51,56.99
282,282,1418A,106.2953,29.5983,虎溪,重庆,79.31,63.11,44.08,48.04,47.89,43.52,47.98,54.07
283,283,1419A,106.5777,29.5102,南坪,重庆,68.09,51.7,46.26,58.04,49.2,47.41,47.35,65.89
284,284,1420A,106.6556,29.6277,唐家沱,重庆,80.6,63.36,49.54,47.1,45.38,43.67,42.96,53.33
285,285,1421A,106.6349,29.4906,茶园,重庆,68.42,57.9,38.1,42.0,42.72,39.45,38.0,55.97
286,286,1422A,106.3754,29.4572,白市驿,重庆,70.0,58.04,50.78,52.58,50.44,50.98,49.49,66.01
287,287,1425A,106.6205,29.7166,空港,重庆,68.28,61.57,54.42,55.51,57.96,51.2,51.58,61.62
288,288,1426A,106.4782,29.4875,新山村,重庆,58.16,53.84,39.08,40.15,39.67,41.8,37.37,49.87
289,289,1427A,106.5616,29.6453,礼嘉,重庆,61.57,74.0,50.68,47.07,44.01,40.66,41.19,54.25
290,290,1429A,106.5093,29.3917,鱼新街,重庆,67.91,51.08,38.02,45.09,44.15,39.37,40.17,49.95
291,291,1431A,103.9728,30.7236,金泉两河,成都,102.75,76.38,55.43,56.48,51.88,55.85,52.62,63.54
292,292,1432A,104.1419,30.6764,十里店,成都,95.77,78.97,56.9,63.52,54.84,56.7,52.52,61.91
293,293,1433A,104.0594,30.5767,三瓦窑,成都,98.84,82.77,58.22,58.11,44.84,53.63,52.21,60.59
294,294,1434A,104.1122,30.6306,沙河铺,成都,87.18,71.2,48.73,51.44,43.55,51.15,46.95,59.74
295,295,1437A,104.0431,30.6556,君平街,成都,95.56,78.16,54.59,58.04,48.52,58.36,59.12,67.22
296,296,1439A,106.6899,26.5998,马鞍山,贵阳,68.18,66.81,54.75,57.05,54.46,54.59,52.05,53.57
297,297,1441A,106.6243,26.6266,鉴湖路,贵阳,81.71,75.68,63.51,66.47,59.28,62.61,62.29,62.08
298,298,1442A,106.7487,26.6343,燕子冲,贵阳,78.42,76.75,61.59,60.67,59.94,56.5,58.78,56.32
299,299,1443A,106.6555,26.4365,碧云窝,贵阳,85.97,76.65,60.19,58.83,53.93,55.61,55.88,61.21
300,300,1444A,106.694,26.5161,中院村,贵阳,67.99,69.39,52.77,56.23,56.47,54.87,52.67,56.84
301,301,1446A,106.7164,26.5699,新华路,贵阳,78.95,74.6,59.35,58.29,63.17,59.75,58.97,58.73
302,302,1450A,102.8204,24.8886,呈贡新区,昆明,86.17,73.63,59.92,61.08,71.93,62.31,69.19,69.91
303,303,1452A,102.7252,25.0902,龙泉镇,昆明,81.04,80.59,53.49,58.74,57.54,52.66,56.78,56.36
304,304,1453A,102.7266,25.0375,东风东路,昆明,68.2,73.82,57.72,57.5,60.21,55.33,64.73,63.25
305,305,1454A,102.6742,25.0669,金鼎山,昆明,79.64,71.6,54.45,58.01,62.92,56.3,61.97,62.53
306,306,1457A,91.1221,29.6747,市环保局,拉萨,99.81,90.7,67.81,83.2,79.74,71.93,76.2,82.83
307,307,1458A,91.0874,29.6475,区监测站,拉萨,114.73,93.34,83.5,87.91,80.38,80.58,77.13,88.2
308,308,1459A,91.1774,29.6541,西藏大学,拉萨,100.68,93.19,76.18,89.39,84.96,78.62,81.66,88.71
309,309,1461A,91.0834,29.6292,拉萨火车站,拉萨,106.98,94.83,86.29,88.03,87.56,79.79,81.24,88.4
310,310,1462A,108.882,34.2749,高压开关厂,西安,69.68,70.64,57.59,66.34,59.07,55.88,55.37,63.01
311,311,1463A,108.993,34.2629,兴庆小区,西安,68.82,66.49,60.6,62.68,56.52,56.62,51.89,62.65
312,312,1464A,109.06,34.2572,纺织城,西安,78.16,69.9,45.53,54.04,48.89,46.0,46.23,53.3
313,313,1465A,108.9356,34.2173,小寨,西安,70.24,73.91,57.0,59.04,51.99,54.51,51.33,61.16
314,314,1466A,108.954,34.2713,市人民体育场,西安,75.38,71.05,50.22,57.52,51.42,51.77,50.86,61.67
315,315,1467A,108.8922,34.2322,高新西区,西安,86.25,75.02,56.64,57.49,53.94,56.24,53.51,63.2
316,316,1468A,108.935,34.3474,经开区,西安,83.27,79.61,58.76,63.53,56.33,55.9,54.68,61.14
317,317,1469A,108.906,34.1546,长安区,西安,81.33,69.87,55.89,57.07,52.64,53.95,52.04,60.76
318,318,1473A,108.985,34.1978,曲江文化产业集团,西安,74.97,65.56,49.7,50.76,43.03,44.34,43.19,59.1
319,319,1474A,109.051,34.3213,广运潭,西安,87.69,80.16,56.11,61.54,55.47,52.85,49.23,58.32
320,320,1476A,103.631,36.1031,兰炼宾馆,兰州,92.49,84.6,76.32,78.86,69.54,68.86,66.88,73.54
321,321,1478A,103.8412,36.0726,生物制品所,兰州,92.8,77.16,55.44,53.51,59.48,60.0,52.55,66.83
322,322,1479A,103.831,36.0464,铁路设计院,兰州,75.05,73.84,58.46,55.08,53.33,61.07,55.18,65.25
323,323,1484A,105.9512,38.6016,贺兰山马莲口(对照点),银川,77.05,104.76,106.35,96.4,101.69,95.75,91.76,97.84
324,324,1488A,106.2328,38.4975,贺兰山东路,银川,76.84,80.19,76.62,77.94,72.79,69.77,68.59,71.6
325,325,1491A,87.6046,43.768,收费所,乌鲁木齐,48.82,29.29,35.7,46.93,41.72,45.9,47.43,55.88
326,326,1493A,87.5525,43.8711,铁路局,乌鲁木齐,68.35,54.59,44.67,48.97,44.75,51.54,47.51,56.15
327,327,1494A,87.6432,43.831,三十一中学,乌鲁木齐,83.21,43.54,51.38,58.44,51.53,57.9,58.6,64.39
328,328,1508A,112.9433,27.8614,板塘,湘潭,87.99,76.63,58.47,65.16,59.54,52.59,58.18,67.8
329,329,1511A,112.9118,27.8403,市监测站,湘潭,64.2,54.61,54.26,61.34,55.77,53.59,56.68,63.01
330,330,1512A,112.8937,27.8728,江麓,湘潭,86.68,77.59,62.93,67.99,64.59,57.25,61.3,65.34
331,331,1513A,112.9227,27.8159,岳塘,湘潭,85.73,75.3,58.68,63.14,61.9,59.32,61.17,69.29
332,332,1515A,113.135,27.8244,天台山庄,株洲,78.16,62.17,52.69,62.96,60.57,58.24,58.29,68.01
333,333,1518A,113.095,27.8867,株冶医院,株洲,80.08,71.29,56.85,55.08,62.54,57.56,58.08,67.38
334,334,1519A,113.167,27.8667,市四中,株洲,78.9,72.45,53.85,61.11,62.48,60.85,58.05,68.69
335,335,1520A,113.143,27.8381,火车站,株洲,84.88,64.46,59.11,60.81,59.51,56.03,56.65,67.65
336,336,1524A,113.13,27.8528,市监测站,株洲,74.89,73.14,53.7,65.68,59.14,59.61,58.44,69.06
337,337,1559A,113.251,27.8336,大京风景区(对照点),株洲,77.68,62.75,56.2,55.41,57.65,55.86,53.89,59.37
338,338,1562A,113.0048,27.9153,昭山,湘潭,81.17,68.92,53.07,60.11,59.7,51.35,55.18,56.12
339,339,1564A,112.4876,27.9164,韶山(对照点),湘潭,66.24,61.21,76.26,75.06,74.56,64.6,64.04,71.1
340,340,1585A,109.8756,40.6532,市环境监测站,包头,86.28,82.26,69.15,66.97,59.63,56.79,62.23,65.67
341,341,1587A,109.9991,40.5842,包头八中,包头,81.74,78.51,66.73,68.1,59.88,59.88,62.91,67.11
342,342,1588A,109.8538,40.6821,青山宾馆,包头,90.5,75.96,64.61,67.26,58.74,55.64,61.18,63.44
343,343,1589A,109.8642,40.6288,惠龙物流,包头,95.77,85.23,69.7,71.24,62.76,62.43,65.16,69.09
344,344,1590A,110.0377,40.5546,东河鸿龙湾,包头,101.15,87.8,65.16,70.23,65.79,64.38,64.28,64.9
345,345,1591A,110.0023,39.8129,综合楼,鄂尔多斯,94.11,97.24,95.74,87.76,84.04,86.13,85.75,79.8
346,346,1592A,109.9486,39.8261,巴音孟克林场办事处,鄂尔多斯,101.65,99.13,96.16,92.89,89.99,88.67,88.35,85.18
347,347,1593A,109.7736,39.5986,康泽苑,鄂尔多斯,112.5,90.44,85.82,86.76,82.34,81.88,82.96,80.66
348,348,1594A,109.8119,39.5989,华泰汽车城,鄂尔多斯,109.27,93.21,79.55,83.3,75.32,73.54,76.06,73.41
349,349,1595A,109.9734,39.7884,奥林花园,鄂尔多斯,98.74,98.95,86.61,84.64,77.24,77.86,79.3,72.38
350,350,1597A,122.2703,40.7094,大庆路,营口,114.76,103.12,90.39,86.03,78.85,74.47,72.15,78.81
351,351,1598A,122.215,40.6511,镜湖西路,营口,118.77,101.2,93.05,90.13,79.18,75.07,74.77,81.48
352,352,1600A,124.3303,40.0625,江湾东路,丹东,76.8,70.73,69.5,71.19,66.9,67.43,67.52,67.85
353,353,1601A,124.4256,40.1503,临江后街,丹东,82.2,94.22,66.09,64.39,66.7,66.53,64.98,68.68
354,354,1602A,124.3933,40.1461,元宝山,丹东,78.15,74.74,68.28,62.42,67.83,64.51,67.01,65.82
355,355,1603A,124.3633,40.1092,民主桥,丹东,69.95,75.57,68.98,65.79,61.94,64.18,65.77,65.6
356,356,1604A,122.0303,41.1489,开发区,盘锦,91.71,96.32,84.48,78.49,79.81,76.09,75.02,73.82
357,357,1605A,122.0485,41.0883,兴隆台,盘锦,79.36,101.53,85.45,82.18,72.62,70.19,69.79,72.28
358,358,1607A,120.9092,40.7136,龙港区,葫芦岛,83.37,87.14,93.47,80.57,78.14,75.44,71.38,77.22
359,359,1608A,120.8392,40.7514,化工街,葫芦岛,91.57,96.09,76.94,71.12,66.33,67.63,63.2,71.45
360,360,1609A,120.8341,40.7073,新区,葫芦岛,93.23,90.94,73.45,76.15,71.42,73.2,67.44,75.66
361,361,1610A,120.8695,40.7677,东城区,葫芦岛,94.24,99.45,78.93,71.88,67.58,66.86,64.17,68.26
362,362,1612A,118.5972,24.8978,津头埔,泉州,87.55,65.79,75.38,73.01,75.16,72.6,72.47,75.6
363,363,1618A,118.3429,35.0532,沂河小区,临沂,110.44,82.56,73.85,72.48,74.52,77.47,73.34,80.89
364,364,1619A,118.295,35.0583,鲁南制药厂,临沂,110.36,84.69,76.36,80.34,80.76,84.09,79.55,85.93
365,365,1620A,118.2794,34.9976,新光毛纺厂,临沂,113.37,92.12,80.02,79.13,76.13,75.66,72.28,80.0
366,366,1621A,118.3956,35.0888,河东保险公司,临沂,106.53,78.18,73.52,74.53,76.43,75.04,72.88,79.14
367,367,1625A,115.9848,36.4372,区政府,聊城,97.94,77.96,74.27,85.84,84.59,77.67,72.62,80.18
368,368,1628A,118.0062,37.3803,市环保局,滨州,86.84,68.05,72.05,84.05,77.6,82.46,75.51,86.63
369,369,1629A,118.0018,37.3617,第二水厂,滨州,61.67,65.0,67.74,81.75,78.93,71.28,71.37,76.63
370,370,1630A,117.9776,37.393,北中新校,滨州,102.14,61.08,71.43,81.09,77.87,70.19,71.92,79.39
371,371,1631A,118.0414,36.8103,人民公园,淄博,93.11,81.2,73.73,76.46,75.97,75.14,75.14,80.69
372,372,1633A,117.8525,36.4847,双山,淄博,78.22,79.88,73.54,84.84,85.86,83.69,83.39,87.88
373,373,1635A,118.3092,36.8194,莆田园,淄博,94.97,80.82,74.33,82.5,82.99,76.84,77.49,84.58
374,374,1637A,117.558,34.8438,市中区政府,枣庄,107.43,85.56,81.16,84.05,80.62,76.86,76.39,88.27
375,375,1638A,117.2852,34.7837,薛城环保局,枣庄,104.54,88.73,79.91,82.44,80.1,83.16,86.02,88.07
376,376,1639A,117.5852,34.7745,峄城区政府,枣庄,107.92,91.91,78.44,77.8,81.29,81.02,79.56,87.55
377,377,1640A,117.7276,34.5578,台儿庄区环保局,枣庄,92.24,80.49,68.19,73.4,73.24,74.78,75.36,80.23
378,378,1641A,117.4518,35.0992,山亭区环保局,枣庄,131.09,112.03,94.74,105.3,94.61,89.7,87.31,100.78
379,379,1643A,121.3719,37.5433,轴承厂,烟台,79.99,76.31,75.72,82.2,80.26,81.7,83.12,90.16
380,380,1645A,121.4478,37.4822,莱山环保局,烟台,97.51,85.35,99.63,86.64,87.07,86.58,88.29,88.58
381,381,1646A,121.2611,37.4967,福山环保局,烟台,102.21,80.59,75.57,82.2,80.82,78.14,80.03,76.74
382,382,1650A,119.1437,36.7023,环保局,潍坊,122.75,96.68,80.84,80.97,75.03,74.1,72.2,81.2
383,383,1653A,116.6251,35.4302,火炬城,济宁,116.13,95.11,81.85,84.05,79.41,79.45,72.06,86.24
384,384,1655A,116.5491,35.4042,电化厂,济宁,101.4,86.06,78.31,83.05,81.67,79.24,77.21,87.32
385,385,1656A,117.1437,36.1937,监测站,泰安,97.19,102.79,83.14,84.29,83.64,84.16,85.86,86.67
386,386,1657A,117.0885,36.2017,人口学校,泰安,91.12,108.37,95.84,87.82,88.0,89.75,94.68,90.12
387,387,1659A,119.471,35.4209,监测站,日照,104.8,80.71,68.97,72.29,69.51,69.72,69.04,69.82
388,388,1660A,119.523,35.4216,市政府广场,日照,104.13,87.6,79.66,77.14,78.89,80.54,79.41,78.4
389,389,1662A,122.1214,37.4236,华夏技校,威海,89.8,78.98,90.52,97.29,95.9,90.85,90.14,93.63
390,390,1663A,122.0508,37.5236,山大分校,威海,108.32,101.6,98.85,99.3,98.39,94.0,96.03,100.81
391,391,1666A,118.6614,37.4309,市环保局,东营,116.42,103.08,85.49,87.47,85.7,84.38,78.92,86.36
392,392,1669A,113.5824,24.7733,市八中,韶关,87.26,74.43,69.08,67.51,61.58,57.3,65.31,70.29
393,393,1671A,113.5917,24.7972,园林处,韶关,85.37,60.55,68.66,66.3,58.74,62.94,63.59,66.56
394,394,1672A,113.6735,24.7791,韶关学院,韶关,84.9,72.56,66.07,60.83,56.6,59.89,60.41,61.77
395,395,1673A,113.5971,24.6863,曲江监测站,韶关,82.4,66.23,58.78,57.79,52.99,57.83,56.44,62.48
396,396,1674A,116.6794,23.3667,金平子站,汕头,100.47,74.68,73.07,84.52,81.61,75.9,77.78,78.73
397,397,1675A,116.7244,23.3633,龙湖子站,汕头,100.81,81.96,77.25,82.28,83.75,75.5,79.88,79.94
398,398,1676A,116.7258,23.2775,濠江子站,汕头,101.99,84.05,77.69,84.11,84.27,77.69,76.16,80.1
399,399,1677A,116.7519,23.4714,澄海子站,汕头,97.87,79.62,69.21,80.25,75.94,72.2,78.99,77.87
400,400,1678A,116.6092,23.2539,潮阳子站,汕头,99.8,82.21,81.38,81.67,85.81,79.8,79.94,79.53
401,401,1680A,110.3539,21.2706,湛江影剧院,湛江,88.9,71.67,72.04,78.69,74.9,69.5,70.76,72.87
402,402,1681A,110.3928,21.2228,市环境监测站,湛江,87.21,72.4,76.15,81.18,78.07,68.57,68.62,76.56
403,403,1682A,110.4019,21.1997,环保局宿舍,湛江,85.28,79.75,77.1,81.41,80.41,70.82,73.72,76.21
404,404,1683A,110.4111,21.2028,霞山游泳场,湛江,99.05,88.12,80.02,80.76,80.12,71.14,72.86,75.85
405,405,1684A,110.3316,21.2679,麻章区环保局,湛江,83.22,81.36,74.67,77.63,75.73,66.47,66.16,69.72
406,406,1686A,111.0286,21.4688,电白南海,茂名,93.9,71.91,73.14,72.01,73.84,63.25,69.3,71.13
407,407,1687A,110.9294,21.6533,茂石化七小,茂名,87.84,70.8,62.47,67.62,70.52,61.67,65.13,67.12
408,408,1688A,110.9107,21.6687,健康路,茂名,82.37,63.94,75.35,74.46,79.91,66.67,68.84,69.71
409,409,1690A,116.1231,24.3284,梅江月梅,梅州,76.62,56.63,59.24,57.43,54.01,53.07,57.34,55.52
410,410,1691A,116.0797,24.2719,梅县新城,梅州,80.13,63.34,54.56,57.76,56.21,53.93,56.05,53.17
411,411,1692A,116.1248,24.2654,环境监控中心,梅州,75.83,57.35,47.0,48.66,50.33,49.02,53.13,51.85
412,412,1693A,115.3653,22.775,市环保局,汕尾,93.78,81.97,77.04,84.3,83.03,78.02,80.66,75.67
413,413,1694A,115.3706,22.7898,市政府,汕尾,101.98,77.98,76.68,80.41,77.37,70.58,77.38,76.06
414,414,1695A,115.3622,22.7925,新城中学,汕尾,85.6,80.89,78.25,83.64,83.28,76.21,77.2,75.3
415,415,1696A,114.6778,23.7569,源西(对照点),河源,85.33,65.49,53.91,59.03,59.27,56.93,64.44,58.67
416,416,1697A,114.6944,23.7586,东埔,河源,84.17,69.25,63.99,66.73,61.77,61.86,67.74,63.27
417,417,1698A,114.6892,23.7233,老城,河源,89.42,69.39,57.01,64.23,58.43,61.04,67.7,63.51
418,418,1701A,111.9491,21.8658,马南垌,阳江,92.54,72.89,67.34,65.28,63.36,63.72,68.68,68.34
419,419,1703A,113.0208,23.7106,凤城街办,清远,77.43,76.91,65.54,64.45,59.52,63.28,67.85,65.3
420,420,1705A,116.6367,23.6719,西园路(对照点),潮州,119.99,89.4,70.52,72.81,68.21,63.75,73.13,67.21
421,421,1706A,116.6447,23.6706,档案局,潮州,121.57,81.89,66.73,75.91,70.45,64.84,71.4,67.51
422,422,1708A,116.3701,23.5345,新兴,揭阳,91.35,67.64,70.56,75.71,75.63,67.57,73.29,72.45
423,423,1710A,116.3611,23.5626,东兴,揭阳,89.64,64.41,69.19,72.3,71.48,65.88,71.62,68.25
424,424,1711A,116.4151,23.5294,渔湖,揭阳,102.06,76.18,69.32,74.49,72.35,67.49,71.14,67.76
425,425,1714A,112.0539,22.9539,牧羊,云浮,60.64,56.81,50.16,46.58,46.15,48.82,51.52,54.27
426,426,1718A,115.4208,35.2464,气象局,菏泽,100.36,104.06,77.47,83.26,75.72,72.6,77.41,87.85
427,427,1719A,115.4747,35.2375,市政协,菏泽,105.21,99.36,83.63,86.09,83.3,80.59,80.85,90.11
428,428,1724A,113.3444,40.0917,大同大学,大同,76.3,82.21,72.59,72.96,66.57,69.31,67.09,71.7
429,429,1726A,113.2711,40.0844,教育学院,大同,85.95,72.79,63.29,66.01,60.89,62.55,64.06,65.03
430,430,1727A,113.1147,36.1547,清华站,长治,120.56,92.55,81.96,87.8,85.08,79.07,74.89,81.59
431,431,1728A,113.1031,36.1989,监测站,长治,101.13,82.16,75.88,87.57,81.5,77.66,73.19,81.88
432,432,1730A,113.0886,36.2125,审计局,长治,91.56,89.52,91.35,92.17,86.79,82.1,77.04,83.26
433,433,1731A,113.0844,36.1856,长治八中,长治,104.98,86.72,83.78,90.06,85.0,83.02,76.51,81.05
434,434,1733A,111.5531,36.0783,临钢医院,临汾,89.99,80.7,75.56,79.95,76.82,67.94,69.22,68.63
435,435,1734A,111.5028,36.0714,技工学校,临汾,67.95,68.38,77.7,79.4,76.12,71.5,69.63,69.14
436,436,1736A,111.5018,36.0855,市委,临汾,67.89,66.0,74.64,78.02,74.88,66.46,72.21,70.62
437,437,1738A,113.5758,37.8572,市中心,阳泉,82.48,83.99,67.06,66.87,66.4,65.99,69.64,64.87
438,438,1739A,113.4894,37.8731,赛鱼,阳泉,73.49,76.46,69.4,66.58,62.87,62.29,64.9,60.89
439,439,1740A,113.5819,37.8486,南庄,阳泉,86.11,82.7,74.18,71.3,72.04,70.95,70.69,69.28
440,440,1742A,113.5614,37.8703,平坦,阳泉,69.0,89.63,77.7,64.45,65.36,65.48,69.0,66.86
441,441,1743A,113.5158,37.8392,大阳泉,阳泉,54.35,91.77,105.01,95.16,91.32,89.74,90.9,91.34
442,442,1744A,118.9233,42.2816,松山一中,赤峰,48.77,75.05,67.9,62.46,62.2,67.57,66.32,71.73
443,443,1745A,118.9576,42.2728,哈达街,赤峰,63.57,63.45,68.42,66.54,63.9,67.15,67.49,73.61
444,444,1746A,118.8788,42.2554,天义路,赤峰,75.27,89.49,74.31,67.35,71.87,72.25,72.05,74.89
445,445,1748A,123.044,41.1196,深沟寺,鞍山,97.7,79.05,87.54,82.1,77.62,74.04,71.44,73.09
446,446,1749A,123.011,41.0931,太阳城,鞍山,89.71,72.22,87.32,75.58,76.3,72.39,68.13,72.52
447,447,1750A,123.0485,41.1442,太平,鞍山,76.22,69.87,78.44,78.81,75.9,73.38,69.29,71.65
448,448,1751A,122.9642,41.0971,铁西三道街,鞍山,79.31,74.39,74.52,71.14,69.96,66.33,61.66,66.51
449,449,1752A,122.9341,41.0833,铁西工业园区,鞍山,94.48,74.62,75.27,62.6,68.88,66.55,62.13,67.79
450,450,1753A,123.022,41.0821,明达新区,鞍山,91.42,86.81,82.29,73.17,78.59,76.89,71.7,74.65
451,451,1755A,123.7977,41.8491,望花区,抚顺,83.67,84.08,60.19,69.59,65.05,63.71,59.82,61.34
452,452,1757A,124.0436,41.8611,东洲区,抚顺,98.11,88.21,71.02,72.53,69.4,69.99,65.05,64.85
453,453,1759A,124.0972,41.8961,大伙房水库,抚顺,102.33,84.85,77.93,77.95,76.88,72.56,68.72,67.49
454,454,1760A,123.7086,41.8391,沈抚新城,抚顺,88.64,87.72,63.48,67.58,64.8,63.5,57.81,59.84
455,455,1761A,123.8275,41.3064,大峪,本溪,106.13,80.21,60.58,63.62,68.94,63.49,63.03,59.05
456,456,1762A,123.7567,41.3325,溪湖,本溪,94.92,71.86,50.59,60.42,58.06,57.98,53.23,56.62
457,457,1763A,123.7169,41.3094,彩屯,本溪,62.72,63.34,58.49,51.9,51.65,51.83,48.28,50.73
458,458,1764A,123.7669,41.2864,东明,本溪,65.07,65.23,51.45,60.14,62.82,61.35,61.39,60.08
459,459,1765A,123.7992,41.2664,新立屯,本溪,88.6,86.91,71.42,62.76,65.55,65.61,65.36,63.67
460,460,1766A,123.8142,41.3472,威宁,本溪,76.44,71.02,53.8,57.15,53.43,53.15,52.74,50.3
461,461,1767A,121.1115,41.0879,南山,锦州,101.2,97.05,86.5,70.26,71.87,71.02,65.63,67.02
462,462,1768A,121.0533,40.8434,开发区,锦州,83.33,92.7,68.46,68.55,64.56,64.96,59.61,66.83
463,463,1769A,121.1836,41.1119,百股街道,锦州,105.59,100.19,70.14,71.45,67.88,66.19,62.42,71.96
464,464,1770A,121.1178,41.1222,天安街道,锦州,98.19,93.35,90.17,71.03,68.67,69.48,64.32,70.58
465,465,1772A,126.54,43.8622,哈达湾,吉林,89.43,88.98,77.88,74.22,71.26,71.74,68.3,72.85
466,466,1773A,126.5844,43.8358,东局子,吉林,96.55,84.05,74.6,72.35,70.31,66.64,64.99,70.88
467,467,1774A,126.5052,43.8245,电力学院,吉林,106.26,94.0,74.9,68.23,67.53,65.5,62.58,68.49
468,468,1775A,126.6133,43.8972,江北,吉林,104.29,90.46,71.43,71.37,70.05,68.17,64.45,69.14
469,469,1776A,126.555,43.8306,江南公园,吉林,103.22,90.28,77.19,74.35,69.02,68.12,66.67,69.72
470,470,1779A,123.9305,47.3636,安居小区,齐齐哈尔,76.76,55.57,66.04,68.56,60.19,62.71,66.01,60.68
471,471,1780A,123.9488,47.3386,中心广场,齐齐哈尔,64.94,49.5,61.77,67.31,62.82,63.76,64.72,63.31
472,472,1781A,123.9483,47.3227,农牧车辆厂,齐齐哈尔,72.52,66.34,67.7,67.98,55.38,58.07,64.06,61.21
473,473,1783A,123.945,47.2988,市环境监测站,齐齐哈尔,65.3,66.67,64.86,64.98,58.25,58.83,65.05,62.41
474,474,1785A,129.6115,44.5782,文化广场,牡丹江,72.01,47.97,51.27,56.86,51.48,54.32,54.8,56.51
475,475,1787A,129.6364,44.6075,机车工厂,牡丹江,75.98,58.86,52.06,54.47,52.9,51.32,52.3,52.38
476,476,1788A,129.6386,44.5462,第一中学,牡丹江,98.44,80.71,65.6,61.78,58.84,59.22,59.23,58.51
477,477,1789A,124.81117,46.03138,大同区,大庆,78.0,72.44,66.9,74.22,68.58,70.94,73.38,65.53
478,478,1790A,125.129,46.533,龙凤区,大庆,67.92,76.52,67.05,65.7,62.43,68.64,69.17,60.97
479,479,1791A,124.902,46.408,红岗区,大庆,98.98,88.75,77.12,71.29,65.84,71.43,72.2,63.79
480,480,1793A,124.9042,46.6215,让胡路区,大庆,89.61,87.54,71.0,71.38,66.98,72.12,73.92,63.58
481,481,1794A,118.3606,31.3519,监测站,芜湖,60.1,82.38,66.67,72.75,69.28,64.17,67.61,75.25
482,482,1795A,118.3714,31.4134,科创中心,芜湖,37.87,69.87,76.6,79.39,70.99,65.02,66.25,73.9
483,483,1796A,118.3673,31.3131,四水厂,芜湖,54.7,76.13,70.65,77.96,72.28,62.36,69.98,78.55
484,484,1798A,118.5092,31.6837,湖东路四小,马鞍山,88.87,82.0,78.85,77.59,74.09,69.13,70.82,83.03
485,485,1799A,118.5024,31.6449,开发区,马鞍山,100.41,72.58,73.56,73.75,74.41,64.58,69.76,76.63
486,486,1800A,118.5228,31.7231,慈湖,马鞍山,92.55,81.65,70.85,79.73,71.68,67.95,69.74,78.09
487,487,1802A,118.6245,31.7241,濮塘(对照点),马鞍山,30.22,58.68,92.66,80.69,81.74,70.94,75.19,81.18
488,488,1803A,115.9872,29.6815,十里,九江,74.83,70.98,56.06,60.76,62.3,63.35,62.05,73.61
489,489,1804A,115.9584,29.7046,茅山头,九江,72.67,67.3,64.54,65.32,66.13,64.47,63.18,71.93
490,490,1805A,115.9877,29.7295,西园,九江,82.61,77.5,70.54,68.08,67.15,66.06,58.07,70.18
491,491,1806A,116.0172,29.6547,五七二七厂,九江,86.32,68.82,78.99,75.84,73.09,72.95,71.79,80.6
492,492,1808A,115.9114,29.6038,综合工业园,九江,94.26,80.24,67.58,67.88,67.0,64.46,61.91,71.22
493,493,1809A,116.0721,29.7535,石化总厂,九江,84.44,76.55,63.94,68.68,72.6,66.18,61.55,75.22
494,494,1810A,115.9773,29.5698,庐山气象台(对照点),九江,102.05,110.22,129.68,129.99,107.5,98.84,97.69,99.82
495,495,1812A,112.3931,34.6516,市委党校,洛阳,81.17,88.26,76.65,73.34,72.25,66.78,70.65,79.93
496,496,1814A,112.4657,34.6871,豫西宾馆,洛阳,66.82,86.24,73.55,73.07,67.83,62.61,69.7,73.27
497,497,1815A,112.494,34.6886,河南林校,洛阳,71.51,89.3,68.34,66.13,68.0,65.16,68.57,74.55
498,498,1816A,112.3844,34.623,开发区管委会,洛阳,98.32,102.68,75.71,72.01,76.44,70.52,74.75,77.99
499,499,1817A,112.4267,34.6258,市委新办公区,洛阳,109.82,87.12,68.94,75.46,70.08,67.65,71.31,76.61
500,500,1820A,114.361,36.0681,银杏小区,安阳,75.54,76.74,67.97,75.71,75.61,72.89,71.35,74.74
501,501,1826A,114.2885,34.7965,世纪星幼儿园,开封,88.5,85.61,73.45,79.82,82.36,75.43,78.68,80.01
502,502,1828A,113.2269,35.2127,市环保局,焦作,87.6,84.99,74.9,80.88,79.31,78.27,79.19,80.47
503,503,1834A,113.182,33.774,平顶山工学院,平顶山,113.62,98.97,81.03,81.14,82.36,79.81,77.21,81.5
504,504,1835A,111.1922,34.7752,市政府,三门峡,91.74,89.27,69.36,71.05,65.92,68.51,70.75,75.65
505,505,1836A,111.1587,34.7942,开发区,三门峡,71.01,83.45,71.6,76.62,70.35,70.01,72.57,77.19
506,506,1840A,111.2992,30.6981,白龙岗,宜昌,69.7,59.99,55.0,56.91,59.54,58.04,51.17,65.0
507,507,1841A,111.3549,30.6465,伍家岗,宜昌,74.07,65.77,46.51,51.77,57.65,48.43,46.68,60.26
508,508,1842A,111.2628,30.6961,点军区,宜昌,77.16,59.27,53.06,52.91,57.49,55.5,52.95,61.57
509,509,1843A,111.3275,30.7819,夷陵区,宜昌,45.65,70.81,57.17,57.5,58.96,55.92,51.52,65.64
510,510,1844A,112.2494,30.3197,市图书馆,荆州,105.08,82.81,61.97,71.52,67.88,64.75,63.73,77.46
511,511,1845A,112.2008,30.3544,市委党校,荆州,100.15,86.7,63.77,69.29,67.77,66.03,64.97,76.39
512,512,1847A,113.1094,29.3578,南湖风景区,岳阳,87.91,75.74,53.13,66.22,67.37,60.8,63.31,75.9
513,513,1848A,113.1493,29.4251,城陵矶,岳阳,84.37,72.54,55.2,71.5,65.32,59.57,60.55,67.14
514,514,1849A,113.1497,29.3575,开发区,岳阳,102.44,83.89,64.22,72.52,67.67,61.47,65.43,71.47
515,515,1850A,113.2621,29.4758,云溪区,岳阳,97.23,85.95,65.07,75.45,73.86,65.94,67.65,75.11
516,516,1851A,112.9943,29.4402,君山区,岳阳,104.39,90.52,81.37,82.56,80.02,72.14,73.03,74.48
517,517,1852A,113.2117,29.355,金凤水库(对照点),岳阳,111.57,85.73,64.89,72.58,72.54,64.7,67.82,72.43
518,518,1854A,111.6975,28.9703,市二中,常德,79.13,77.32,70.96,70.91,70.49,60.88,64.01,67.64
519,519,1857A,111.7158,29.1456,白鹤山(对照点),常德,41.11,69.11,91.15,84.82,90.18,78.55,79.57,80.91
520,520,1858A,110.5319,29.1217,永定新区,张家界,67.66,67.12,62.78,59.9,57.17,45.24,51.91,62.52
521,521,1860A,110.5594,29.3547,未央路,张家界,78.75,74.17,59.39,56.59,57.42,47.31,45.59,57.48
522,522,1862A,110.4144,25.3167,电子科大尧山校区(对照点),桂林,75.71,65.88,72.71,70.15,68.48,63.38,63.16,73.47
523,523,1863A,110.2819,25.2697,监测站,桂林,88.35,77.82,65.26,67.14,69.38,62.44,62.62,71.88
524,524,1864A,110.3089,25.2708,龙隐路小学,桂林,91.52,81.45,69.55,68.34,64.85,59.8,64.33,71.0
525,525,1865A,110.2869,25.2178,八中,桂林,76.71,70.91,65.14,65.82,66.28,62.77,61.19,68.94
526,526,1867A,109.1436,21.4086,海滩公园,北海,95.0,86.76,84.63,87.32,78.19,70.99,78.59,77.24
527,527,1868A,109.0981,21.4661,新市环保局,北海,99.09,100.14,73.11,74.71,79.17,68.97,72.66,72.43
528,528,1869A,109.1778,21.5233,北海工业园,北海,85.73,76.38,67.42,64.42,59.26,57.75,67.54,65.74
529,529,1870A,109.4856,24.3895,柳东小学,柳州,98.03,83.32,67.51,66.6,67.62,64.19,66.08,71.42
530,530,1871A,109.4157,24.3277,环保监测站,柳州,88.25,70.14,55.9,56.3,52.24,54.91,58.02,64.17
531,531,1872A,109.389,24.341,河西水厂,柳州,97.09,63.76,54.72,54.61,57.5,52.64,53.75,56.65
532,532,1873A,109.4311,24.2921,市四中,柳州,81.97,67.62,53.22,52.93,49.75,54.17,55.17,62.72
533,533,1874A,109.4006,24.3631,市九中,柳州,94.89,73.41,50.29,49.22,50.62,52.22,53.19,60.23
534,534,1875A,109.4958,24.3134,古亭山,柳州,90.3,70.96,55.28,55.85,57.84,56.12,57.72,63.56
535,535,1876A,109.5078,18.2489,河东子站,三亚,71.3,60.88,59.52,58.48,63.33,58.5,61.91,63.72
536,536,1877A,109.4964,18.2681,河西子站,三亚,76.99,66.26,61.76,58.09,61.68,56.95,57.45,61.12
537,537,1878A,104.7778,31.4741,富乐山,绵阳,90.68,81.12,61.95,71.79,58.79,63.38,61.23,66.06
538,538,1879A,104.7563,31.4535,市人大,绵阳,72.1,67.1,52.42,56.76,50.3,54.72,54.88,59.5
539,539,1880A,104.6697,31.4668,高新区自来水公司,绵阳,80.66,69.18,52.04,59.21,55.4,58.45,52.93,60.95
540,540,1881A,104.7287,31.5075,三水厂,绵阳,84.31,68.49,51.31,58.52,49.43,53.49,50.8,56.11
541,541,1882A,104.563,28.793,石马中学(对照点),宜宾,65.78,38.1,51.5,62.56,59.93,58.08,56.4,59.33
542,542,1883A,104.6201,28.7728,市委,宜宾,63.93,52.23,51.35,56.4,51.95,50.56,51.22,58.66
543,543,1884A,104.6055,28.793,宜宾四中,宜宾,62.74,52.01,53.71,61.35,55.24,54.59,52.55,62.86
544,544,1885A,104.639,28.7562,市政府,宜宾,88.89,83.03,61.53,60.84,56.36,53.77,52.79,62.75
545,545,1886A,104.5742,28.7199,黄金嘴,宜宾,75.34,71.72,59.22,63.45,57.73,55.99,55.53,62.76
546,546,1888A,101.6891,26.571,弄弄坪,攀枝花,71.0,53.91,53.56,63.66,63.21,55.37,61.1,56.7
547,547,1889A,101.5769,26.5928,河门口,攀枝花,84.99,69.45,52.34,62.89,63.95,55.55,64.2,57.1
548,548,1890A,101.7169,26.585,炳草岗,攀枝花,76.79,58.59,47.76,54.83,55.78,51.27,52.45,49.96
549,549,1891A,101.7369,26.5008,仁和,攀枝花,85.66,72.92,53.54,57.61,61.59,60.45,66.33,60.79
550,550,1893A,105.4324,28.9634,九狮山(对照点),泸州,99.84,88.19,54.17,55.47,47.97,47.97,47.38,49.67
551,551,1894A,105.4427,28.9063,小市上码头,泸州,78.99,77.55,49.33,53.04,53.1,54.88,54.59,63.26
552,552,1895A,105.4241,28.8573,兰田宪桥,泸州,64.93,81.21,50.56,52.79,51.88,51.23,50.53,56.81
553,553,1896A,105.4379,28.8833,市环监站,泸州,62.03,63.5,47.04,54.8,50.44,52.43,51.91,61.55
554,554,1901A,104.4239,31.1208,东山公园,德阳,95.0,91.73,75.47,76.75,65.48,70.16,65.99,72.66
555,555,1902A,104.3826,31.1317,西小区,德阳,99.66,92.67,59.84,59.23,51.6,56.13,53.8,61.75
556,556,1904A,104.3553,31.1091,耐火材料厂,德阳,94.97,69.77,59.55,56.7,46.15,53.39,51.82,60.58
557,557,1906A,106.0789,30.8023,南充市委,南充,62.04,52.52,64.33,64.03,54.21,58.66,54.38,60.69
558,558,1907A,106.1031,30.8217,南充炼油厂,南充,57.45,67.66,73.05,70.38,57.63,50.01,51.43,61.89
559,559,1908A,106.1064,30.7856,高坪区监测站,南充,52.03,51.05,66.31,67.6,50.89,52.27,51.29,58.9
560,560,1909A,106.0642,30.7636,嘉陵区环保局,南充,57.25,61.24,73.44,72.44,53.79,57.27,52.33,62.12
561,561,1910A,106.1087,30.8388,市环境监测站,南充,52.37,69.47,74.43,84.82,59.38,61.52,55.58,61.38
562,562,1911A,106.9222,27.6869,丁字口,遵义,70.91,55.64,49.58,51.68,49.81,49.11,51.68,63.58
563,563,1912A,106.9242,27.7019,凤凰山,遵义,72.13,61.97,61.21,60.31,61.3,57.77,60.87,71.74
564,564,1913A,106.8906,27.6486,忠庄,遵义,76.91,61.65,46.05,53.83,51.4,52.76,52.94,61.55
565,565,1915A,106.9178,27.72,干田坝,遵义,77.52,62.01,48.28,51.87,51.56,51.56,51.25,63.11
566,566,1916A,103.7897,25.5035,环境监测站,曲靖,90.3,83.41,62.36,63.2,65.63,62.79,69.84,70.12
567,567,1917A,103.8,25.5364,烟厂办公区,曲靖,95.92,79.89,59.63,63.06,71.84,62.39,73.24,71.41
568,568,1919A,108.673,34.3155,实验中学,咸阳,82.84,76.51,62.23,66.35,54.76,54.47,53.05,62.16
569,569,1920A,108.7233,34.3617,师范学院,咸阳,71.53,74.27,62.1,63.93,60.42,60.08,55.4,63.09
570,570,1923A,109.0697,35.0697,王益区政府,铜川,72.03,87.06,58.01,63.61,59.97,60.2,54.19,64.14
571,571,1924A,108.9344,34.9058,新区管委会,铜川,108.39,100.59,85.46,82.28,75.05,75.69,71.87,78.88
572,572,1930A,107.185,34.3063,庙沟村(对照点),宝鸡,87.77,100.47,83.19,75.84,73.93,78.43,77.7,70.41
573,573,1932A,107.1906,34.3672,三陆医院,宝鸡,77.87,73.32,52.37,56.83,51.8,53.82,54.69,60.15
574,574,1933A,107.1431,34.3547,监测站,宝鸡,72.9,69.01,52.82,57.28,50.8,55.65,53.54,61.12
575,575,1934A,107.1186,34.3739,技工学校,宝鸡,73.12,82.45,59.6,58.44,57.82,62.37,60.16,66.21
576,576,1935A,107.3906,34.3528,陈仓区环保局家属楼,宝鸡,68.33,77.63,54.26,56.23,49.83,52.65,53.18,58.21
577,577,1939A,109.4974,34.4877,日报社,渭南,76.23,80.7,56.91,61.59,56.96,57.61,60.26,63.79
578,578,1940A,109.4636,34.493,体育馆,渭南,92.34,86.93,60.34,61.26,61.31,60.48,64.56,68.99
579,579,1941A,109.4259,34.5023,高新一小,渭南,76.04,79.24,64.03,59.82,61.64,59.36,59.7,66.26
580,580,1943A,102.1725,38.5339,新川苑,金昌,111.33,97.96,87.42,88.42,87.12,79.5,78.11,82.78
581,581,1944A,102.1692,38.5167,天庆家园,金昌,83.35,83.58,93.65,87.2,89.78,84.79,79.36,82.35
582,582,1945A,98.2908,39.7711,气象局,嘉峪关,117.12,90.51,94.65,85.71,86.9,80.52,85.07,83.43
583,583,1947A,106.3394,38.817,沙湖旅游区(对照点),石嘴山,105.59,98.12,78.26,77.15,74.22,69.14,69.89,72.13
584,584,1948A,106.3668,39.0145,大武口朝阳西街,石嘴山,108.53,95.71,83.4,82.4,76.04,74.4,80.18,73.85
585,585,1949A,106.7704,39.2282,惠农南大街,石嘴山,91.54,93.45,87.64,79.21,74.86,69.38,72.26,68.53
586,586,1951A,84.895,45.6094,长征新村,克拉玛依,109.98,105.57,76.58,80.16,82.78,71.63,71.79,73.42
587,587,1952A,84.8988,45.5893,南林小区,克拉玛依,72.75,89.82,78.8,71.58,73.23,67.22,68.6,70.07
588,588,1954A,84.905,44.3396,独山子区,克拉玛依,94.8,96.7,87.92,86.2,80.04,79.52,79.69,80.16
589,589,1955A,85.6979,46.098,乌尔禾区商贸楼,克拉玛依,79.03,72.98,65.72,71.27,70.25,61.51,64.45,65.26
590,590,1957A,86.1972,41.7166,棉纺厂,巴音郭楞州,80.26,64.93,63.95,73.06,70.32,71.1,70.29,73.73
591,591,1961A,117.532,36.6868,东山小学,济南,100.23,102.42,82.17,78.47,78.28,84.12,83.39,87.38
592,592,1982A,122.0693,37.2174,文登开发区,威海,97.55,92.48,90.76,82.97,86.08,81.26,82.35,85.42
593,593,2054A,114.1099,32.1059,平桥分局,信阳,96.76,80.97,68.64,82.53,79.43,75.68,73.66,79.59
594,594,2064A,113.9956,32.1271,南湾水厂,信阳,96.47,83.97,84.39,94.2,90.13,85.57,81.58,88.22
595,595,2065A,114.0775,32.1195,市酿酒公司,信阳,103.54,86.06,74.46,83.15,80.41,75.59,71.19,79.21
596,596,2066A,114.0609,32.1399,审计局,信阳,93.27,80.15,70.72,80.13,76.77,72.22,67.57,78.72
597,597,2067A,114.6613,33.6128,市环境监测站,周口,62.85,83.43,73.62,82.91,79.59,75.26,72.87,84.56
598,598,2068A,114.6758,33.6347,周口师范,周口,117.15,92.02,86.5,85.36,80.79,76.44,72.86,84.53
599,599,2069A,114.6546,33.5979,市运管处,周口,56.79,82.19,79.55,84.73,82.76,75.26,72.92,84.42
600,600,2070A,114.6369,33.6406,川汇区环保局,周口,79.87,89.94,83.68,85.49,83.35,78.61,75.0,84.32
601,601,2160A,112.85,35.5051,自来水公司,晋城,61.41,72.47,83.82,88.84,85.09,81.85,82.81,84.84
602,602,2161A,112.8318,35.4936,白云商贸,晋城,45.1,73.96,80.18,85.48,84.1,80.03,81.63,82.91
603,603,2162A,112.8508,35.4887,市环保局,晋城,63.72,69.89,83.68,81.82,80.56,78.44,78.51,81.3
604,604,2163A,112.8676,35.4897,技术学院,晋城,74.11,70.37,81.55,78.5,80.92,80.31,79.18,79.74
605,605,2166A,112.4397,39.3522,平朔,朔州,116.59,98.29,79.51,72.76,67.62,69.03,68.98,67.49
606,606,2167A,112.4575,39.3617,朔唯,朔州,104.52,96.18,72.21,68.56,64.57,67.48,65.16,66.26
607,607,2168A,112.4258,39.3197,区政府,朔州,118.31,99.04,75.75,82.6,75.93,75.9,73.64,76.07
608,608,2169A,112.4072,39.3278,市环保局,朔州,102.3,92.83,80.31,79.26,75.52,74.73,73.14,74.32
609,609,2171A,112.7532,37.6945,锦纶小区,晋中,59.21,67.23,68.4,73.95,71.52,69.47,71.48,73.68
610,610,2173A,112.7249,37.7067,南都小区,晋中,80.31,74.13,72.09,73.76,73.33,71.72,71.85,75.75
611,611,2174A,112.6991,37.6982,榆次区政府,晋中,66.98,74.88,72.14,70.94,72.46,69.14,70.92,72.23
612,612,2175A,110.9956,35.0147,运城中学,运城,93.16,72.5,93.52,93.89,94.02,89.13,87.39,89.43
613,613,2178A,110.9686,35.0303,地区技校,运城,98.83,69.49,93.34,91.0,86.74,81.49,81.81,85.52
614,614,2181A,112.7383,38.4519,开发区,忻州,78.98,81.93,75.27,68.88,64.89,68.79,70.61,69.13
615,615,2182A,112.7003,38.4928,会展中心,忻州,92.52,79.12,66.69,66.68,65.76,66.52,63.67,62.91
616,616,2183A,111.1406,37.5211,环保局,吕梁,75.86,61.02,50.49,52.65,53.39,50.66,53.43,54.01
617,617,2187A,106.8174,39.6973,市林业局,乌海,96.36,78.5,70.07,80.49,79.01,74.34,77.75,78.33
618,618,2188A,106.7907,39.6667,中海勃湾学校,乌海,90.28,86.72,80.46,85.56,81.97,79.83,80.65,80.07
619,619,2191A,122.2532,43.6801,艺术职业学校,通辽,107.48,110.04,93.79,87.96,79.57,75.55,74.75,74.71
620,620,2192A,119.7594,49.2261,区环保局,呼伦贝尔,69.41,64.77,63.6,64.12,61.74,61.32,62.88,61.37
621,621,2195A,107.4212,40.761,附二中,巴彦淖尔,98.2,86.72,74.29,80.11,79.59,74.38,78.22,75.54
622,622,2197A,113.1306,40.9923,集宁新区,乌兰察布,104.75,98.69,95.35,86.0,81.36,76.29,80.05,79.47
623,623,2200A,122.0392,46.0656,胜华新制药厂,兴安盟,85.63,73.9,68.07,69.48,65.35,63.33,61.64,61.29
624,624,2201A,121.9504,46.0741,科右前旗环保局,兴安盟,88.46,78.69,68.53,68.01,62.62,61.88,62.42,63.06
625,625,2202A,116.1042,43.9317,市环保监测站,锡林郭勒盟,75.42,75.55,69.88,73.14,68.03,70.48,73.1,72.31
626,626,2203A,116.0781,43.9311,市政府,锡林郭勒盟,44.53,79.85,79.51,84.8,71.98,71.01,72.06,71.55
627,627,2204A,105.6467,38.8363,西城区西花园(对照点),阿拉善盟,115.61,84.86,111.99,109.6,103.51,96.79,101.63,101.33
628,628,2205A,105.6985,38.8411,蒙二幼,阿拉善盟,110.42,113.25,109.54,108.88,100.51,93.65,100.69,102.75
629,629,2206A,105.724,38.8516,环保局新楼,阿拉善盟,103.79,114.07,112.21,113.23,109.85,105.04,110.41,105.96
630,630,2207A,121.6094,41.998,工业园区,阜新,70.44,75.3,79.1,78.36,71.26,75.1,68.57,73.38
631,631,2208A,121.6697,42.0279,长青街,阜新,90.25,82.72,74.74,73.73,65.86,73.68,65.43,69.16
632,632,2209A,121.6673,42.0705,农业园区,阜新,76.52,71.93,84.53,84.41,81.88,83.45,75.99,77.89
633,633,2210A,121.6717,42.0224,东苑,阜新,63.03,63.51,78.29,77.72,73.6,74.69,69.57,71.97
634,634,2211A,121.6506,42.0498,玉龙新城,阜新,91.81,77.25,75.73,73.95,69.16,74.41,65.87,66.24
635,635,2212A,123.2,41.1953,宏伟区,辽阳,98.35,97.85,81.89,77.4,71.04,75.15,67.55,69.38
636,636,2213A,123.1683,41.2495,新华园,辽阳,77.83,90.39,72.95,70.78,64.92,65.27,61.83,65.87
637,637,2214A,123.2354,41.2639,滨河路,辽阳,88.12,79.7,74.53,68.15,67.96,66.8,63.11,68.26
638,638,2215A,123.149,41.2991,铁西工业园,辽阳,82.06,74.37,72.6,66.6,58.34,63.17,58.56,63.01
639,639,2216A,123.8139,42.3022,汇工街西,铁岭,92.79,106.1,72.87,60.82,63.8,63.75,64.86,69.3
640,640,2218A,123.8486,42.2867,银州路东段,铁岭,84.81,81.45,77.36,64.65,67.29,68.71,62.0,66.62
641,641,2219A,123.7153,42.2217,金沙江路北,铁岭,99.04,92.93,67.94,63.89,67.23,65.56,62.74,65.23
642,642,2220A,120.4318,41.5881,西梁,朝阳,69.23,75.54,81.19,77.48,70.79,71.67,66.5,68.02
643,643,2221A,120.4521,41.5646,河畔小区,朝阳,35.66,68.57,86.44,86.48,76.74,76.99,71.12,71.75
644,644,2222A,120.4176,41.5648,八里堡,朝阳,85.04,64.46,78.57,75.96,71.52,70.11,64.22,66.84
645,645,2223A,120.3806,41.5969,农业园区,朝阳,27.66,45.13,67.27,81.5,76.35,74.01,66.69,66.5
646,646,2225A,124.4002,43.1713,一商场,四平,90.33,73.24,71.88,75.54,68.79,70.86,68.63,70.12
647,647,2226A,124.388,43.193,境园,四平,93.84,70.52,66.84,67.07,66.48,66.91,63.19,65.62
648,648,2227A,125.1358,42.8845,环保局,辽源,81.66,82.81,69.07,70.71,69.98,68.87,64.59,68.32
649,649,2229A,125.9358,41.7173,光明,通化,87.93,70.63,56.52,58.45,49.51,55.19,57.62,59.88
650,650,2230A,125.9446,41.7325,铁路,通化,83.88,72.29,56.19,60.67,44.76,54.05,57.45,57.29
651,651,2231A,126.4219,41.9171,喜丰,白山,88.39,78.68,59.26,57.03,55.1,54.37,52.97,57.05
652,652,2232A,126.4077,41.9419,环保局,白山,77.52,68.23,59.16,60.2,58.63,56.31,56.17,53.14
653,653,2236A,122.8738,45.5725,市环保局,白城,85.94,81.16,74.0,73.28,67.14,61.58,62.69,61.38
654,654,2237A,129.47,42.8883,妇幼医院,延边朝鲜族自治州,76.63,71.5,64.52,64.1,59.6,59.45,57.68,58.83
655,655,2239A,129.3964,42.8881,朝阳川镇医院,延边朝鲜族自治州,86.21,73.5,69.81,64.74,59.8,59.94,58.71,58.52
656,656,2240A,130.9762,45.3001,环保局,鸡西,57.95,61.48,54.08,55.28,50.28,58.15,62.25,56.24
657,657,2243A,130.9429,45.3039,第一中学,鸡西,86.86,69.45,64.76,68.71,63.04,58.97,61.38,63.19
658,658,2244A,130.2537,47.3416,哈啤分公司,鹤岗,75.89,69.06,62.24,69.63,64.6,59.74,65.64,65.36
659,659,2245A,130.2684,47.3086,斯达机电,鹤岗,89.53,70.11,63.63,72.63,62.23,59.12,65.74,66.0
660,660,2246A,130.3114,47.3388,东山纸板厂,鹤岗,77.93,64.47,58.84,62.47,57.35,52.39,58.01,57.65
661,661,2250A,131.1524,46.6554,环保局,双鸭山,84.41,51.35,56.09,61.02,54.18,55.16,63.15,65.15
662,662,2252A,128.5159,47.4311,环保局,伊春,68.21,54.35,54.66,56.73,53.94,51.39,55.45,56.33
663,663,2255A,130.2751,46.8028,佳纺,佳木斯,79.11,70.23,65.24,60.92,55.02,56.57,59.0,58.29
664,664,2258A,130.3648,46.8032,十一中,佳木斯,68.49,79.87,57.66,56.19,53.28,55.99,56.92,59.56
665,665,2259A,130.3794,46.7588,四丰(对照点),佳木斯,87.59,75.97,71.42,73.96,65.95,62.55,65.19,66.49
666,666,2262A,131.0518,45.8751,新一中(对照点),七台河,103.44,82.44,71.4,73.32,72.12,69.99,72.55,68.82
667,667,2264A,127.5144,50.2341,环保局,黑河,78.62,61.88,61.29,66.38,57.8,58.6,62.64,60.29
668,668,2267A,126.964,46.6528,党政办公中心,绥化,74.74,51.04,58.96,63.13,60.93,64.26,64.46,67.11
669,669,2270A,117.396,32.939,工人疗养院,蚌埠,96.91,68.08,80.27,91.71,73.94,74.26,76.71,83.83
670,670,2271A,117.3605,32.9427,百货大楼,蚌埠,80.86,74.23,79.05,87.44,67.39,79.07,78.59,82.65
671,671,2273A,117.4185,32.8911,蚌埠学院,蚌埠,95.67,91.99,83.15,85.92,77.53,78.3,76.1,78.71
672,672,2274A,117.3533,32.9673,淮上区政府,蚌埠,113.96,93.8,79.3,81.55,74.43,73.6,74.57,81.38
673,673,2275A,117.3145,32.8977,高新区,蚌埠,93.71,85.9,82.88,84.1,81.23,80.83,76.99,82.83
674,674,2277A,116.8305,32.7727,潘集区政府,淮南,95.48,81.78,86.95,83.24,75.7,81.56,77.65,78.89
675,675,2281A,116.6325,32.6201,焦岗湖风景区管理处(对照点),淮南,69.53,85.29,79.23,85.34,73.12,75.48,76.16,74.99
676,676,2282A,116.8004,33.975,监测站,淮北,93.92,74.62,80.18,82.76,82.24,80.15,74.37,86.71
677,677,2283A,116.8091,33.9007,烈山区政府,淮北,108.92,91.66,82.91,86.55,84.44,81.88,74.45,84.99
678,678,2284A,116.7856,33.9477,职业技术学院,淮北,109.02,93.77,85.69,87.24,83.02,81.45,73.43,83.62
679,679,2285A,117.8177,30.9412,市第四中学,铜陵,67.71,71.51,62.51,71.53,68.54,65.61,60.58,74.23
680,680,2286A,117.8059,30.9273,市公路局,铜陵,66.13,62.28,56.08,61.56,66.18,65.26,66.14,71.58
681,681,2287A,117.7807,30.9413,市新民污水厂,铜陵,63.53,77.24,63.87,65.02,69.27,62.76,56.48,66.57
682,682,2288A,117.7439,30.8792,市第九中学,铜陵,78.8,66.68,55.02,57.96,58.13,53.92,50.87,61.7
683,683,2289A,117.846,30.9413,车站新区,铜陵,73.6,86.22,64.71,63.05,69.76,63.48,60.29,69.94
684,684,2290A,117.8483,30.97,市职教基地,铜陵,74.1,73.58,60.98,72.37,71.47,60.08,60.79,71.09
685,685,2291A,117.0809,30.5177,环科院,安庆,52.51,77.31,78.66,86.32,84.27,77.69,69.56,78.92
686,686,2292A,117.0331,30.5119,马山宾馆,安庆,80.86,56.23,75.27,81.34,84.52,86.13,72.94,77.64
687,687,2295A,118.2903,29.6963,延安路89号,黄山,58.74,69.36,68.7,49.75,74.1,69.29,61.14,61.46
688,688,2296A,118.327,29.7178,黄山东路89号,黄山,45.42,58.29,60.91,52.38,61.08,65.1,56.73,61.47
689,689,2297A,118.1371,30.2756,黄山区政府5号楼,黄山,51.79,72.83,61.87,48.26,70.02,67.99,59.02,57.98
690,690,2298A,118.3093,32.3153,老年大学,滁州,37.2,93.41,93.34,81.03,78.34,77.51,75.05,82.82
691,691,2299A,118.3244,32.2786,人大宾馆,滁州,41.24,77.35,81.37,80.74,77.28,76.07,76.44,82.82
692,692,2301A,115.8277,32.8929,市监测站,阜阳,70.94,62.48,68.46,77.58,82.69,75.46,74.32,82.17
693,693,2303A,115.8554,32.8605,开发区,阜阳,98.65,60.69,68.01,77.28,79.88,74.61,71.81,79.26
694,694,2307A,116.5079,31.737,监测大楼,六安,45.04,83.94,83.88,89.8,66.89,81.73,78.66,79.32
695,695,2308A,116.4738,31.7643,皖西学院,六安,76.41,78.79,80.44,84.69,62.48,78.34,77.86,82.73
696,696,2310A,116.5567,31.7886,开发区,六安,37.62,58.9,72.1,80.49,62.79,81.09,77.25,75.61
697,697,2311A,115.8072,33.8399,污水处理厂,亳州,61.83,82.94,90.07,80.59,82.56,79.37,75.17,82.39
698,698,2314A,117.47,30.6618,池州学院,池州,69.65,70.65,70.14,69.71,74.73,64.66,69.92,73.97
699,699,2316A,118.7581,30.9454,鳌峰子站,宣城,91.98,78.56,80.29,72.06,68.45,74.99,75.56,72.76
700,700,2317A,118.7385,30.9743,敬亭山子站,宣城,70.4,63.8,68.86,74.08,70.29,73.67,77.51,71.75
701,701,2318A,118.7173,30.9427,开发区子站,宣城,67.53,76.49,73.93,73.57,72.4,76.67,77.46,73.17
702,702,2319A,119.0141,25.4325,荔城区仓后路,莆田,67.59,70.22,80.18,80.03,74.37,75.01,72.85,75.28
703,703,2320A,119.0015,25.4553,莆田市监测站,莆田,76.72,78.4,85.7,83.15,78.46,78.27,75.39,77.54
704,704,2321A,119.1119,25.4561,涵江区六中,莆田,94.74,81.18,84.8,80.18,76.15,75.27,74.56,75.76
705,705,2322A,119.1013,25.3215,秀屿区政府,莆田,94.26,79.33,91.16,88.51,78.46,77.57,75.64,77.57
706,706,2324A,117.6211,26.2625,三钢,三明,49.39,53.57,51.05,50.38,47.84,50.47,48.21,53.92
707,707,2325A,117.635,26.2714,三明二中,三明,51.16,54.27,55.06,53.17,47.68,50.84,50.79,54.51
708,708,2326A,117.6028,26.2378,三元区政府,三明,59.88,46.76,48.24,48.36,42.17,47.73,49.0,52.31
709,709,2332A,118.1681,26.6369,南平市监测站,南平,73.47,60.86,56.87,57.12,56.32,58.37,53.71,60.16
710,710,2333A,118.1825,26.6489,南平铝业有限公司,南平,77.13,65.26,58.64,61.31,56.41,58.07,54.07,58.43
711,711,2334A,118.1756,26.6272,南平七中,南平,61.72,60.92,59.23,55.0,56.89,58.31,55.17,60.56
712,712,2336A,117.0217,25.1033,龙岩市监测站,龙岩,78.22,70.62,54.78,54.72,53.8,56.54,57.31,55.82
713,713,2337A,117.0258,25.0661,闽西职业技术学院,龙岩,75.35,62.18,52.55,54.29,51.29,53.8,54.82,53.95
714,714,2341A,119.5388,26.6612,宁德市监测站,宁德,77.74,61.1,70.56,67.02,59.36,64.76,60.79,65.77
715,715,2343A,117.2117,29.2933,老干部活动中心,景德镇,52.92,67.19,56.36,56.76,57.42,47.66,48.32,62.93
716,716,2344A,117.1894,29.2789,兽医站,景德镇,67.58,70.35,60.16,58.69,57.98,53.55,55.1,65.04
717,717,2345A,117.1547,29.2617,台达陶瓷,景德镇,53.95,69.2,58.5,55.93,52.79,52.43,51.07,61.87
718,718,2346A,117.2461,29.2956,陶研所,景德镇,74.32,71.99,54.18,54.07,51.32,50.98,48.6,59.1
719,719,2348A,113.8385,27.6434,中医院,萍乡,66.5,64.64,47.05,51.84,57.33,55.64,56.94,64.99
720,720,2349A,113.8493,27.6253,市政府车库,萍乡,78.86,68.41,46.2,57.77,58.35,55.03,51.41,61.71
721,721,2350A,113.8676,27.6435,市环保局,萍乡,64.18,75.38,46.88,55.94,59.73,55.3,54.02,64.3
722,722,2351A,113.866,27.6198,安源区政府,萍乡,46.62,46.97,47.48,55.19,55.3,46.41,50.19,60.05
723,723,2353A,114.9886,27.8431,飞宇,新余,50.47,67.98,58.97,59.45,64.4,59.03,56.0,58.98
724,724,2354A,114.9231,27.8246,第二水厂,新余,58.01,58.82,64.47,61.42,65.09,61.84,57.16,62.72
725,725,2355A,114.9308,27.8036,市气象局,新余,49.24,55.08,57.29,57.99,61.88,58.07,53.68,58.67
726,726,2358A,117.0564,28.2642,新监测站,鹰潭,84.24,72.89,66.22,69.88,69.08,62.36,61.24,68.32
727,727,2360A,117.0222,28.2264,体育馆,鹰潭,87.75,80.64,62.99,65.92,66.07,64.69,60.2,67.64
728,728,2361A,117.0017,28.2131,三川水表,鹰潭,83.71,75.15,58.71,64.25,60.66,61.71,55.03,63.17
729,729,2363A,114.9367,25.8664,地委,赣州,69.23,68.75,67.02,65.49,67.85,68.25,61.95,67.37
730,730,2364A,114.9461,25.8481,气象台,赣州,78.57,70.93,67.39,71.27,70.39,70.41,64.59,71.56
731,731,2365A,114.9322,25.8333,市图书馆,赣州,79.33,70.41,70.46,69.32,74.39,74.97,61.39,72.27
732,732,2366A,114.8905,25.8471,华坚鞋城,赣州,83.53,76.14,67.56,67.93,71.29,72.37,68.83,72.13
733,733,2368A,114.9658,27.0999,市森林工业局,吉安,75.8,77.22,74.31,67.75,70.4,66.93,65.17,71.7
734,734,2369A,114.99,27.1312,市环境监测站,吉安,70.57,83.44,71.63,65.9,66.25,68.4,63.57,71.74
735,735,2370A,115.0093,27.0968,青原区法院,吉安,57.43,62.92,75.39,69.64,70.87,69.35,64.35,71.8
736,736,2373A,114.3956,27.7844,市石油公司,宜春,45.03,64.06,58.88,61.29,62.96,54.23,50.92,60.11
737,737,2374A,114.3703,27.7914,市气象局,宜春,65.24,72.72,54.97,55.84,63.31,60.51,56.26,65.09
738,738,2375A,114.4013,27.8074,市广电局,宜春,69.26,72.38,54.88,57.93,68.29,58.86,56.36,63.71
739,739,2377A,116.3544,27.9831,市站,抚州,81.6,66.32,61.24,62.57,68.39,68.29,66.25,70.96
740,740,2378A,116.3565,27.963,血防站,抚州,93.8,67.67,66.0,68.5,66.76,68.0,65.22,69.32
741,741,2379A,116.3564,28.0007,采茶剧团,抚州,79.6,67.3,60.46,63.81,66.79,65.96,63.26,68.94
742,742,2380A,116.385,27.9647,医学分院,抚州,86.36,62.78,61.38,67.68,67.76,68.04,64.8,68.84
743,743,2382A,117.9756,28.4436,市监测站,上饶,82.92,85.7,64.81,59.13,63.3,59.37,55.65,67.22
744,744,2383A,117.9519,28.4628,凤凰光学,上饶,81.66,72.84,55.74,55.18,61.37,60.34,59.84,62.67
745,745,2385A,114.17,35.9019,市监测站,鹤壁,86.15,83.38,74.02,77.81,77.66,70.41,73.2,76.31
746,746,2386A,114.2956,35.7511,市交警支队,鹤壁,91.25,77.03,74.83,80.25,76.14,71.87,71.85,70.15
747,747,2389A,113.836,35.311,环保西院,新乡,77.92,79.88,68.54,75.17,63.95,66.47,70.87,74.66
748,748,2390A,113.884,35.272,开发区,新乡,85.29,89.33,73.68,78.86,67.35,70.47,73.22,77.59
749,749,2391A,113.883,35.303,环保东院,新乡,78.8,70.49,75.59,77.57,70.07,67.78,74.21,78.41
750,750,2392A,115.0312,35.7636,环保局,濮阳,94.44,86.2,71.33,85.21,78.81,75.88,74.89,80.06
751,751,2394A,115.0574,35.7609,油田运输公司,濮阳,99.52,88.91,78.46,84.19,78.58,74.25,75.9,81.1
752,752,2395A,115.0866,35.7754,油田物探公司,濮阳,94.48,94.14,80.58,85.01,77.25,71.83,73.59,78.87
753,753,2396A,113.8276,34.0159,监测站,许昌,100.34,89.59,74.17,77.88,75.42,69.44,68.35,79.53
754,754,2399A,114.051,33.5699,三五一五工厂,漯河,110.9,88.56,70.14,74.93,74.16,71.12,72.72,80.24
755,755,2400A,114.0055,33.5698,漯河大学,漯河,108.45,95.4,69.39,77.28,79.63,75.34,75.71,83.4
756,756,2401A,114.0138,33.5828,市水利局,漯河,111.3,88.25,70.52,77.71,78.11,73.86,75.59,83.66
757,757,2402A,114.0261,33.5698,市广电局,漯河,111.16,89.7,67.68,78.97,79.9,71.94,74.77,81.75
758,758,2406A,112.5779,33.0144,气象站,南阳,92.94,96.06,83.63,82.15,80.96,78.56,75.07,84.02
759,759,2407A,112.548,32.9692,理工学院,南阳,106.16,103.33,85.1,76.68,79.26,75.89,73.94,80.95
760,760,2408A,115.6702,34.4285,环境监测站,商丘,96.29,88.75,75.54,76.3,75.6,75.8,75.06,82.39
761,761,2409A,115.6458,34.4045,粮食局,商丘,99.4,89.41,82.42,84.18,83.8,78.56,78.38,86.53
762,762,2410A,115.6293,34.3948,睢阳区环保局,商丘,104.85,84.56,72.58,78.38,75.54,74.26,73.29,83.36
763,763,2420A,114.0189,32.9656,市一纸厂,驻马店,107.78,85.92,77.68,78.91,76.71,76.45,71.46,80.25
764,764,2421A,114.0114,33.015,市彩印厂,驻马店,100.23,90.91,82.11,88.16,85.03,82.37,78.2,86.12
765,765,2422A,113.9976,32.9771,天方二分厂,驻马店,95.82,86.51,74.41,77.8,81.35,77.97,75.5,83.27
766,766,2424A,115.0817,30.2006,陈家湾,黄石,88.46,82.3,62.72,66.67,69.35,66.52,67.45,77.88
767,767,2426A,114.8988,30.2019,铁山,黄石,60.6,46.8,51.48,71.61,73.16,69.24,69.62,77.57
768,768,2429A,110.78,32.6494,滨河新村,十堰,61.73,47.82,59.72,60.84,58.63,59.16,54.05,67.07
769,769,2430A,110.7258,32.6389,刘家沟,十堰,83.99,70.88,61.6,64.89,63.21,61.43,59.25,72.29
770,770,2431A,110.8839,32.5714,铁二处,十堰,72.2,85.01,58.13,71.91,58.77,63.7,59.69,73.67
771,771,2432A,112.155,32.0197,襄城运动路,襄阳,88.37,78.91,68.37,70.36,69.19,69.56,65.62,78.7
772,772,2433A,112.1392,32.0564,樊城新华路,襄阳,87.86,76.77,60.91,71.34,71.7,72.36,69.02,80.94
773,773,2434A,112.1825,32.1142,高新管委会,襄阳,97.53,75.29,63.92,70.7,71.36,70.15,63.59,77.88
774,774,2435A,112.2106,32.0903,襄州航空路,襄阳,101.83,90.22,66.28,71.91,69.01,68.71,65.03,77.63
775,775,2436A,114.8938,30.3994,市政府,鄂州,112.14,92.67,59.76,70.92,66.13,66.28,64.18,69.7
776,776,2437A,114.8989,30.3714,赵家坝,鄂州,90.26,91.81,64.67,73.59,72.77,67.67,65.6,71.67
777,777,2439A,112.2014,31.0481,竹园小学,荆门,89.01,79.52,72.99,78.4,78.4,73.06,69.8,83.46
778,778,2440A,112.1969,30.9891,掇刀,荆门,92.01,82.22,76.48,77.78,78.31,78.12,72.04,84.51
779,779,2441A,112.2213,31.0386,石化一小,荆门,84.07,62.47,64.48,75.68,77.68,72.38,67.96,80.06
780,780,2443A,113.9153,30.9285,文化路,孝感,93.01,86.67,68.52,76.19,74.53,69.83,69.52,74.27
781,781,2444A,113.942,30.9075,东城区,孝感,91.99,75.24,68.99,79.43,74.0,71.42,71.15,75.09
782,782,2446A,114.9028,30.4742,职工中心,黄冈,115.36,100.44,74.51,81.29,75.89,71.08,73.39,78.9
783,783,2447A,114.3175,29.8142,森林公园(对照点),咸宁,85.37,79.09,68.79,73.38,77.9,83.87,83.54,87.54
784,784,2448A,114.3107,29.8454,市发改委,咸宁,94.32,83.95,70.18,76.0,73.34,67.38,68.03,75.99
785,785,2449A,114.2936,29.8566,咸安区政府,咸宁,95.58,80.29,71.84,77.26,74.33,65.18,67.6,76.18
786,786,2451A,113.3583,31.7275,市委党校,随州,95.86,74.6,65.34,72.63,72.61,69.03,67.74,76.09
787,787,2452A,113.3833,31.6908,市林业局,随州,104.04,95.18,73.57,77.34,78.25,72.12,72.18,81.88
788,788,2453A,113.3983,31.7308,市立交桥水厂,随州,81.11,87.3,70.85,69.48,73.42,68.76,65.58,72.12
789,789,2454A,109.4978,30.2981,湖北民院,恩施土家族苗族自治州,68.12,53.77,44.74,40.59,45.07,41.33,41.69,51.49
790,790,2455A,109.4707,30.2798,州电力总公司,恩施土家族苗族自治州,61.2,35.81,37.33,34.56,41.08,39.39,37.91,48.22
791,791,2456A,112.5003,26.9167,原169医院(对照点),衡阳,88.2,73.66,63.9,57.94,62.86,59.3,61.62,61.39
792,792,2457A,112.6194,26.9258,衡阳化工总厂,衡阳,88.29,67.9,58.37,62.03,64.09,60.12,60.85,65.78
793,793,2458A,112.6211,26.8956,珠晖区环保局,衡阳,69.69,63.06,53.18,51.94,58.5,57.41,56.41,64.75
794,794,2459A,112.6197,26.8733,市委党校,衡阳,84.54,73.94,60.78,61.79,60.37,60.69,60.07,68.94
795,795,2460A,112.6006,26.8919,市监测站,衡阳,84.23,68.72,59.26,55.19,58.38,60.57,61.94,67.18
796,796,2461A,112.5664,26.9056,真空机电公司,衡阳,76.86,61.42,61.12,62.98,61.88,57.87,59.6,66.56
797,797,2465A,111.4503,27.2537,市罐头厂,邵阳,78.72,75.48,59.91,60.65,65.13,56.68,58.58,68.29
798,798,2466A,111.4328,27.2272,市环保局,邵阳,88.6,73.98,65.44,63.75,69.39,60.06,59.13,71.69
799,799,2468A,112.3458,28.5808,市环保局,益阳,93.31,82.99,73.29,72.03,69.91,62.0,65.19,75.5
800,800,2469A,112.3437,28.5531,市特殊教育学校,益阳,102.93,92.25,76.84,72.13,75.61,62.56,66.79,77.16
801,801,2470A,112.3347,28.6047,资阳区政务中心,益阳,97.93,79.33,68.19,66.62,68.91,60.53,62.64,73.27
802,802,2473A,113.0116,25.8226,市职中,郴州,75.83,63.14,62.57,60.45,56.47,53.93,52.64,61.77
803,803,2474A,113.0161,25.8001,兴隆步行街,郴州,76.04,67.02,70.02,57.32,56.98,57.66,53.82,62.63
804,804,2475A,113.0383,25.8071,市审计局,郴州,64.49,69.47,63.6,59.25,55.57,56.35,53.9,61.95
805,805,2476A,113.0348,25.7759,市环保局,郴州,73.11,62.65,72.66,54.44,51.98,53.4,52.69,59.79
806,806,2477A,111.6217,26.2081,零陵南津渡(对照点),永州,84.12,75.11,69.92,70.34,65.38,59.07,63.44,71.98
807,807,2478A,111.6156,26.4214,市环境监测站,永州,87.15,77.21,64.32,66.39,68.17,64.37,65.15,71.19
808,808,2479A,111.6236,26.2331,零陵区环保局,永州,65.34,55.6,49.43,58.0,58.4,58.64,61.83,68.27
809,809,2480A,111.5992,26.4364,永州市环保局,永州,80.03,74.6,65.35,64.67,64.66,60.48,62.82,71.01
810,810,2481A,111.5989,26.4519,冷水滩区环保局,永州,84.27,77.83,60.53,64.63,65.17,59.68,59.38,69.19
811,811,2482A,109.5981,27.5721,林科所(对照点),怀化,79.06,77.4,68.23,69.07,62.96,61.89,63.3,72.49
812,812,2483A,109.9453,27.5444,河西地税局,怀化,83.43,70.89,66.32,61.53,60.04,54.36,55.65,63.43
813,813,2485A,109.9972,27.5578,监测楼,怀化,73.04,65.98,53.3,57.18,55.31,56.78,54.23,62.47
814,814,2486A,110.0394,27.583,市委党校,怀化,95.13,77.69,64.33,67.89,64.13,57.49,57.83,61.31
815,815,2489A,112.0194,27.7314,市委党校,娄底,83.77,89.92,66.55,63.16,63.27,59.78,59.68,65.8
816,816,2490A,111.9561,27.7569,涟钢,娄底,89.43,78.66,65.24,70.47,72.27,59.92,56.63,61.91
817,817,2491A,111.9892,27.7044,市政府,娄底,69.9,80.32,68.97,74.46,70.88,62.64,57.8,63.93
818,818,2494A,109.6958,28.2675,吉首市计生局,湘西州,66.93,71.22,46.0,40.47,42.4,42.82,48.48,56.35
819,819,2495A,111.3014,23.4832,市逸夫小学,梧州,80.6,69.21,55.27,52.37,49.76,52.77,50.97,55.76
820,820,2496A,111.3239,23.4794,市十一中,梧州,73.32,62.35,47.06,50.18,50.18,48.7,47.77,51.95
821,821,2497A,111.247,23.4189,龙圩,梧州,66.67,61.86,45.05,43.99,44.15,49.9,47.1,50.72
822,822,2498A,111.2711,23.4835,龙新,梧州,88.6,61.49,47.94,46.64,45.72,50.43,49.42,52.18
823,823,2499A,108.3411,21.6158,沙万,防城港,56.01,66.94,60.4,63.57,60.03,56.12,59.65,56.87
824,824,2500A,108.3514,21.7731,防城档案局,防城港,63.53,60.92,62.91,60.34,55.02,56.0,57.83,53.45
825,825,2501A,108.3506,21.6414,大海花园,防城港,61.32,55.78,71.96,67.68,63.37,60.47,65.22,62.42
826,826,2502A,108.6236,21.9667,市环保站,钦州,78.52,68.76,66.26,66.89,61.55,58.71,61.33,63.61
827,827,2503A,108.6549,21.9481,沙埠小学,钦州,84.05,70.18,62.4,60.34,58.52,58.79,63.0,59.31
828,828,2504A,108.5989,21.7431,港区一小,钦州,73.34,70.92,57.41,57.92,52.57,53.22,59.22,59.88
829,829,2506A,109.6047,23.0666,江南子站,贵港,81.55,64.65,60.73,57.28,56.46,54.84,61.32,61.41
830,830,2507A,109.6014,23.0948,贵城子站,贵港,74.09,63.29,63.7,62.19,58.53,58.4,62.32,62.62
831,831,2508A,109.5669,23.1065,荷城子站,贵港,83.0,80.84,62.62,62.37,55.64,57.39,63.08,63.28
832,832,2509A,110.1106,22.7019,寒山水库(对照点),玉林,100.09,71.81,57.43,61.49,58.13,56.33,64.45,57.98
833,833,2510A,110.1675,22.6411,市监测站,玉林,73.14,69.38,56.77,58.91,57.95,58.63,61.09,58.13
834,834,2511A,110.1433,22.6164,南江一中,玉林,84.71,63.96,54.67,65.24,56.9,59.35,58.93,55.93
835,835,2512A,106.6103,23.9011,市监测站,百色,74.44,58.23,54.02,51.69,51.86,53.29,55.21,56.12
836,836,2513A,106.6538,23.8859,市中心血站,百色,71.59,65.43,49.16,51.85,50.47,53.24,56.58,57.32
837,837,2514A,111.5264,24.4172,环保小区,贺州,69.63,58.94,57.18,56.44,51.19,56.91,59.51,60.89
838,838,2515A,111.5608,24.4078,政协大楼,贺州,54.37,54.28,63.54,59.59,55.36,56.65,58.67,61.15
839,839,2517A,108.0497,24.6947,市环保站,河池,60.11,58.75,50.23,45.74,46.95,49.55,48.13,51.21
840,840,2518A,108.0983,24.6989,市疾控中心,河池,83.64,66.82,44.48,43.85,44.32,44.69,46.37,48.63
841,841,2520A,109.2203,23.7256,来宾技工学校,来宾,73.83,65.59,60.62,57.7,59.97,57.19,58.03,59.49
842,842,2521A,107.3476,22.4136,市环保局江州分局,崇左,93.59,75.02,62.32,57.55,50.75,53.42,57.95,55.17
843,843,2522A,107.3702,22.3707,城南新区,崇左,88.29,70.49,56.12,56.77,52.81,54.87,58.36,55.18
844,844,2523A,105.8945,32.4535,黑石坡(对照点),广元,98.24,84.56,65.9,71.92,58.2,68.73,65.65,71.97
845,845,2524A,105.821,32.4444,老城,广元,84.3,68.1,43.32,48.36,38.89,51.89,45.26,51.19
846,846,2526A,105.8628,32.4287,监测站,广元,96.91,74.31,50.79,57.16,45.49,54.44,52.37,59.74
847,847,2527A,105.5453,30.5678,石溪浩(对照点),遂宁,35.52,74.61,51.13,53.48,49.29,51.02,46.73,55.86
848,848,2528A,105.5582,30.5232,市监测站,遂宁,108.45,97.22,55.97,56.23,49.38,53.39,50.3,59.14
849,849,2529A,105.5861,30.5366,行政中心,遂宁,78.06,73.21,67.76,60.56,51.37,55.95,56.05,61.83
850,850,2530A,105.5918,30.4728,美宁食品公司,遂宁,98.05,89.41,53.89,55.5,50.74,51.8,51.26,57.69
851,851,2531A,105.0703,29.61,市监测站,内江,88.32,85.8,63.77,66.6,57.82,57.94,58.32,69.63
852,852,2532A,105.0717,29.5947,东兴区政府,内江,91.16,86.22,67.99,66.28,58.6,65.43,62.38,71.3
853,853,2533A,105.0653,29.5817,内江二中,内江,97.53,79.1,60.94,64.77,60.81,63.48,63.82,71.38
854,854,2534A,105.0406,29.5822,内江日报社,内江,92.94,89.09,67.51,66.89,59.72,60.94,60.99,71.21
855,855,2535A,103.7723,29.5462,花湖湾(对照点),乐山,86.9,75.63,69.1,61.83,58.23,58.85,60.24,66.01
856,856,2536A,103.7627,29.5844,牛耳桥,乐山,76.71,68.65,58.12,53.24,50.8,53.11,53.27,58.49
857,857,2537A,103.7508,29.6006,市第三水厂,乐山,85.29,71.73,57.78,51.16,56.58,56.5,57.01,62.56
858,858,2538A,103.7571,29.5664,市监测站,乐山,78.74,74.25,60.59,47.83,49.82,57.56,59.05,63.74
859,859,2539A,104.0308,30.0478,黑龙滩水库(对照点),眉山,101.8,85.08,70.87,81.47,71.57,72.63,71.27,74.63
860,860,2540A,103.8416,30.0874,气象局,眉山,97.32,80.18,60.11,58.38,52.87,53.56,56.1,63.51
861,861,2544A,106.6303,30.4576,市委,广安,86.12,74.0,53.93,55.13,49.89,55.61,54.09,63.44
862,862,2545A,106.6271,30.4663,友谊中学,广安,99.34,79.27,56.01,54.08,53.61,57.9,54.82,61.58
863,863,2547A,106.6388,30.4551,广电花园,广安,91.37,69.8,53.0,56.61,51.42,54.27,50.34,59.05
864,864,2548A,107.5277,31.2827,达州职业技术学院(对照点),达州,68.44,70.95,55.78,69.79,55.09,50.74,40.32,39.85
865,865,2549A,107.5086,31.2186,市环境监测站,达州,62.67,66.37,60.89,64.01,50.96,50.66,35.55,39.08
866,866,2550A,107.4988,31.2132,凤凰小区,达州,54.86,57.72,43.88,61.55,50.48,45.28,39.86,42.66
867,867,2551A,107.5082,31.1986,达县机关宾馆,达州,59.4,58.99,57.19,72.87,50.38,54.27,40.47,37.31
868,868,2552A,107.4644,31.2124,市政中心,达州,69.06,60.92,63.78,71.29,53.13,48.5,38.08,40.98
869,869,2555A,103.0111,29.9833,市政府,雅安,49.78,97.71,77.49,62.46,54.62,53.86,53.06,60.43
870,870,2561A,104.6617,30.1372,莲花山(对照点),资阳,103.45,90.66,77.43,73.88,67.15,69.72,68.55,78.32
871,871,2562A,104.6356,30.1506,资阳中学,资阳,103.29,87.85,71.65,71.42,62.4,62.99,60.88,69.89
872,872,2563A,104.6295,30.1383,四三一厂,资阳,95.46,88.75,67.2,65.24,58.99,64.93,60.23,68.55
873,873,2564A,104.6463,30.1146,师范校,资阳,100.07,85.98,66.44,65.41,57.79,65.26,59.79,69.42
874,874,2565A,104.6296,30.1256,区法院,资阳,107.69,92.89,69.56,70.15,62.2,66.26,61.78,73.56
875,875,2568A,102.2502,31.8896,马师校,阿坝藏族羌族自治州,70.46,71.0,55.62,58.58,56.21,52.97,53.63,56.78
876,876,2573A,102.2625,27.898,西昌市政府,凉山彝族自治州,87.2,78.23,73.59,73.77,75.55,67.51,67.72,70.2
877,877,2574A,102.2685,27.8851,凉山州政府,凉山彝族自治州,104.79,84.2,72.88,74.92,75.14,65.47,68.04,66.71
878,878,2575A,102.237,27.8914,长安,凉山彝族自治州,103.69,80.59,66.26,69.02,70.03,65.2,66.17,68.28
879,879,2577A,104.83,26.5917,黄土坡,六盘水,66.66,60.83,65.92,69.33,63.78,63.61,64.14,67.53
880,880,2578A,104.89,26.5939,水钢,六盘水,54.09,57.44,71.76,65.45,60.05,63.0,63.34,70.19
881,881,2579A,104.8475,26.5894,民中,六盘水,55.72,73.83,66.21,68.83,69.13,66.1,65.43,65.92
882,882,2580A,104.9544,26.5506,双水,六盘水,46.52,58.06,61.85,67.12,63.52,63.2,66.79,70.0
883,883,2585A,109.1839,27.7344,铜仁卫校,铜仁地区,68.1,51.66,51.24,49.79,52.93,46.5,43.81,57.74
884,884,2586A,109.1753,27.6944,铜仁七中,铜仁地区,86.45,68.48,50.86,50.77,51.24,46.56,44.77,59.78
885,885,2587A,105.2864,27.3125,八中,毕节,62.7,54.15,59.05,61.45,60.41,60.24,63.13,70.92
886,886,2588A,105.31,27.2944,师专,毕节,87.0,73.43,60.82,63.97,61.58,61.39,62.54,69.51
887,887,2589A,104.9022,25.0925,场坝街,黔西南布依族苗族自治州,80.78,52.01,40.98,49.08,54.15,54.35,59.17,59.64
888,888,2590A,104.8811,25.0992,坪东大道,黔西南布依族苗族自治州,51.43,66.37,47.08,53.25,59.23,55.14,56.06,54.8
889,889,2591A,107.9783,26.5747,市环境监测站,黔东南苗族侗族自治州,67.09,58.65,42.93,56.34,50.88,54.91,51.42,58.89
890,890,2593A,107.5228,26.2403,小围寨,黔南布依族苗族自治州,74.07,60.37,54.07,58.81,51.5,54.0,53.99,58.99
891,891,2595A,99.1711,25.1328,市环保局,保山,86.08,77.19,67.36,68.79,69.15,64.58,68.17,62.55
892,892,2596A,103.7667,27.3736,监测站,昭通,74.52,81.86,78.32,74.51,74.85,67.2,71.56,75.52
893,893,2597A,103.7225,27.3361,环保局,昭通,123.11,96.23,77.19,72.51,75.09,63.45,68.26,74.62
894,894,2599A,100.2497,26.8802,丽江古城,丽江,67.34,56.41,78.34,78.74,73.88,69.95,76.63,75.36
895,895,2602A,100.9817,22.8322,普洱第二中学,普洱,82.42,70.24,48.08,49.6,54.33,51.88,47.27,44.45
896,896,2603A,100.0781,23.8982,市环保局,临沧,49.8,49.38,49.39,58.92,58.21,47.93,50.08,51.06
897,897,2604A,100.0894,23.8822,市气象局,临沧,87.33,71.96,51.57,53.58,55.93,50.56,52.05,52.44
898,898,2605A,101.5482,25.0441,州环境监测站,楚雄州,57.75,65.11,54.99,60.82,64.72,57.98,59.54,55.86
899,899,2606A,101.538,25.0492,市经济开发区,楚雄州,69.48,69.33,55.7,55.4,62.73,55.68,58.39,55.07
900,900,2608A,103.3772,23.3993,污水处理厂,红河州,97.54,86.01,66.55,73.46,72.67,61.32,69.2,68.85
901,901,2609A,103.3861,23.35,监测站,红河州,90.49,79.24,66.31,76.16,78.1,65.48,68.94,68.86
902,902,2610A,104.2533,23.3594,州水务局,文山州,82.16,75.63,60.44,60.45,57.28,59.55,65.41,62.05
903,903,2612A,100.7939,22.0019,景洪市江南,西双版纳州,62.51,32.99,39.5,38.5,41.94,39.61,38.34,40.66
904,904,2614A,100.1542,25.7054,大理市环境监测站,大理州,79.58,62.8,72.27,75.05,71.22,69.31,70.17,70.56
905,905,2615A,100.2171,25.5811,大理古城,大理州,75.4,54.62,76.73,78.77,77.42,68.93,72.92,67.49
906,906,2616A,98.5842,24.428,德宏州监测站,德宏州,94.32,66.59,49.3,52.82,48.65,37.22,48.33,47.81
907,907,2618A,98.8601,25.8567,州监测站,怒江州,79.85,56.34,46.9,53.36,49.94,43.76,52.92,47.39
908,908,2619A,98.8546,25.8417,泸水一中,怒江州,64.73,52.32,42.56,41.79,38.43,36.35,44.13,39.96
909,909,2621A,99.7056,27.8317,迪庆州站,迪庆州,43.0,39.55,60.07,71.88,72.85,68.02,74.74,74.28
910,910,2630A,80.1161,32.5,阿里监测站,阿里地区,53.06,30.97,89.15,86.19,82.33,94.49,99.44,101.52
911,911,2635A,107.0154,33.0706,市监测站,汉中,88.31,72.16,55.81,58.71,47.13,51.21,50.5,58.2
912,912,2636A,107.0089,33.1138,鑫源开发区,汉中,87.48,71.5,53.38,57.87,46.04,52.5,52.09,56.25
913,913,2637A,107.007,33.0323,南郑大河坎水厂,汉中,80.09,69.82,51.17,52.07,43.21,45.92,47.6,56.31
914,914,2640A,109.7289,38.2839,实验中学,榆林,92.52,76.15,72.05,73.99,67.51,71.08,67.89,66.81
915,915,2641A,109.7336,38.2478,环保监测大楼,榆林,108.6,89.1,77.37,75.32,71.58,71.4,70.98,70.17
916,916,2642A,109.0318,32.6537,香溪洞(对照点),安康,91.31,74.51,75.17,73.54,61.0,64.59,64.96,71.68
917,917,2643A,109.0281,32.6939,安康市监测站,安康,85.36,73.01,53.36,57.94,46.18,49.66,48.5,59.36
918,918,2644A,109.0072,32.6975,汉滨区检察院,安康,84.75,75.1,56.65,56.64,42.84,47.83,47.2,58.24
919,919,2645A,109.9154,33.8715,监测站,商洛,99.6,88.91,63.53,65.32,67.8,66.5,64.84,72.59
920,920,2647A,104.1724,36.5446,第三小学,白银,70.61,68.07,75.66,74.96,66.83,70.39,72.03,82.78
921,921,2648A,104.1465,36.5482,动力公司,白银,84.27,69.15,71.44,71.87,68.86,66.57,67.68,77.58
922,922,2650A,105.7205,34.5786,公园小学,天水,84.85,78.42,59.7,60.94,57.51,57.99,60.22,64.64
923,923,2651A,105.8945,34.5538,麦积国土局,天水,88.18,82.09,72.18,68.65,57.85,56.5,57.9,65.47
924,924,2652A,102.6201,37.9251,监测站,武威,94.49,80.77,69.56,77.89,72.9,70.81,68.72,72.86
925,925,2654A,100.4698,38.9524,润泉湖,张掖,106.14,84.64,82.52,75.16,76.4,71.66,69.5,71.3
926,926,2655A,100.4154,38.9422,区工会,张掖,109.15,94.96,84.38,80.59,80.51,74.45,69.82,77.01
927,927,2656A,106.6692,35.5461,聚贤嘉苑,平凉,74.7,82.97,59.07,69.77,61.41,61.98,64.28,71.71
928,928,2657A,106.7021,35.5307,博物馆,平凉,91.98,81.86,63.95,67.04,63.2,63.88,64.56,69.15
929,929,2658A,98.5061,39.7443,仓门街子站,酒泉,95.54,90.71,83.81,84.47,84.4,78.77,80.34,79.71
930,930,2659A,98.4989,39.7256,油田生活基地,酒泉,82.17,89.5,85.37,84.54,81.24,78.95,79.41,79.81
931,931,2661A,107.6325,35.7357,庆阳五中,庆阳,83.19,88.08,96.33,97.89,91.09,91.49,86.0,94.36
932,932,2662A,107.6364,35.7067,市环保局,庆阳,92.17,87.03,87.13,78.33,81.85,81.84,79.42,95.39
933,933,2663A,104.6241,35.5734,东关小学,定西,101.58,83.0,70.26,71.98,67.43,64.33,68.54,70.25
934,934,2664A,104.6194,35.5934,供电公司,定西,88.92,78.79,61.34,68.83,63.31,60.32,61.32,66.08
935,935,2667A,103.2069,35.5993,环保局,临夏回族自治州,94.2,88.76,67.63,63.34,60.68,62.76,59.92,68.42
936,936,2668A,103.2417,35.6057,建设大厦,临夏回族自治州,99.46,76.38,67.6,71.92,65.36,69.33,64.93,71.4
937,937,2669A,102.9099,34.9841,州政府,甘南州,99.85,96.06,72.71,76.32,68.42,67.46,65.58,69.85
938,938,2671A,100.9048,36.9639,海晏县西海镇,海北藏族自治州,114.18,110.36,88.42,89.82,97.0,90.26,87.43,91.67
939,939,2672A,102.0199,35.5102,同仁县隆务镇,黄南藏族自治州,91.19,87.19,75.25,76.99,78.64,79.43,83.11,74.75
940,940,2673A,100.6188,36.2866,共和县恰卜恰镇,海南藏族自治州,119.36,98.85,78.49,74.15,91.37,83.74,80.35,86.96
941,941,2674A,100.2561,34.4714,玛沁县大武镇,果洛藏族自治州,108.89,96.84,90.01,94.55,79.25,76.93,82.55,86.27
942,942,2676A,97.3731,37.3753,德令哈市,海西蒙古族藏族自治州,113.75,73.09,92.08,91.24,105.26,96.44,92.38,97.12
943,943,2677A,106.1532,37.9648,教育园区,吴忠,72.73,75.51,61.53,67.34,70.26,65.52,72.61,71.14
944,944,2680A,105.0025,37.4635,沙坡头消防站(对照点),中卫,82.59,93.94,84.88,83.85,74.54,76.58,74.79,81.0
945,945,2682A,105.1971,37.5002,环保局站,中卫,87.37,76.54,79.85,80.1,72.11,75.36,73.55,74.02
946,946,2683A,106.2319,36.1417,马园(对照点),固原,72.53,56.84,73.07,77.95,66.7,70.56,63.38,69.36
947,947,2684A,106.2792,36.0022,监测站,固原,81.0,60.03,73.97,79.67,75.54,71.67,74.74,73.36
948,948,2685A,106.2375,36.0211,新区,固原,80.53,81.71,72.46,80.46,70.32,69.39,73.51,74.97
949,949,2689A,93.4961,42.8328,哈密师范学校,哈密地区,44.88,44.3,70.39,53.74,65.56,66.77,65.87,70.19
950,950,2692A,87.2717,44.0297,新区政务中心,昌吉州,75.39,47.38,55.16,59.65,54.75,65.5,65.15,64.4
951,951,2693A,82.0485,44.8556,市党校,博尔塔拉蒙古自治州,37.59,79.45,75.79,68.58,75.29,69.23,69.01,72.06
952,952,2694A,82.0806,44.8969,市环保局,博尔塔拉蒙古自治州,38.22,68.28,65.86,56.34,66.68,60.9,61.45,63.14
953,953,2698A,76.0072,39.4467,巡警大队,喀什地区,96.62,78.68,78.34,80.32,69.03,65.69,65.42,68.74
954,954,2706A,82.9994,46.7432,东门外小游园,塔城地区,91.83,84.85,74.66,81.53,63.72,63.06,60.66,64.33
955,955,2709A,86.0497,44.2967,艾青诗歌馆,石河子,72.26,72.11,73.07,62.8,62.38,62.38,62.82,64.68
956,956,2711A,87.5475,44.1756,农水大厦,五家渠,72.44,66.69,48.71,57.87,56.15,56.69,56.85,55.27
